[
{
"name": "Albany Medical Center Program",
"specialty": "Allergy and Immunology",
"location": "Albany, NY",
"latitude": 42.6823182,
"longitude": -73.8477874
},
{
"name": "Baylor College of Medicine Program",
"specialty": "Allergy and Immunology",
"location": "Houston, TX",
"latitude": 29.7050857,
"longitude": -95.40180869999999
},
{
"name": "Boston University Medical Center Program",
"specialty": "Allergy and Immunology",
"location": "Boston, MA",
"latitude": 42.3377967,
"longitude": -71.0705763
},
{
"name": "Brigham and Women's Hospital Program",
"specialty": "Allergy and Immunology",
"location": "Boston, MA",
"latitude": 42.339904,
"longitude": -71.0898892
},
{
"name": "Case Western Reserve University/University Hospitals Cleveland Medical Center Program",
"specialty": "Allergy and Immunology",
"location": "Mayfield Hts, OH",
"latitude": 41.5192189,
"longitude": -81.45789599999999
},
{
"name": "Children's Hospital of Philadelphia Program",
"specialty": "Allergy and Immunology",
"location": "Philadelphia, PA",
"latitude": 39.9583587,
"longitude": -75.1953934
},
{
"name": "Boston Children's Hospital Program",
"specialty": "Allergy and Immunology",
"location": "Boston, MA",
"latitude": 42.339904,
"longitude": -71.0898892
},
{
"name": "Children’s Hospital of Michigan Program",
"specialty": "Allergy and Immunology",
"location": "Detroit, MI",
"latitude": 42.348495,
"longitude": -83.0602998
},
{
"name": "Cleveland Clinic Foundation Program",
"specialty": "Allergy and Immunology",
"location": "Cleveland, OH",
"latitude": 41.5034177,
"longitude": -81.6204806
},
{
"name": "Duke University Hospital Program",
"specialty": "Allergy and Immunology",
"location": "Durham, NC",
"latitude": 36.0038131,
"longitude": -78.9387241
},
{
"name": "Emory University School of Medicine Program",
"specialty": "Allergy and Immunology",
"location": "Atlanta, GA",
"latitude": 33.7980995,
"longitude": -84.3259367
},
{
"name": "Henry Ford Hospital/Wayne State University Program",
"specialty": "Allergy and Immunology",
"location": "Detroit, MI",
"latitude": 42.3664506,
"longitude": -83.0737195
},
{
"name": "Icahn School of Medicine at Mount Sinai Program",
"specialty": "Allergy and Immunology",
"location": "New York, NY",
"latitude": 40.79164069999999,
"longitude": -73.9447994
},
{
"name": "Indiana University School of Medicine Program",
"specialty": "Allergy and Immunology",
"location": "Indianapolis, IN",
"latitude": 39.7794767,
"longitude": -86.1700894
},
{
"name": "Johns Hopkins University Program",
"specialty": "Allergy and Immunology",
"location": "Baltimore, MD",
"latitude": 39.2713976,
"longitude": -76.5603828
},
{
"name": "Kaiser Permanente Southern California (Los Angeles) Program",
"specialty": "Allergy and Immunology",
"location": "Los Angeles, CA",
"latitude": 34.1220545,
"longitude": -118.2935891
},
{
"name": "Louisiana State University (Shreveport) Program",
"specialty": "Allergy and Immunology",
"location": "Shreveport, LA",
"latitude": 32.49,
"longitude": -93.77
},
{
"name": "Louisiana State University Program",
"specialty": "Allergy and Immunology",
"location": "New Orleans, LA",
"latitude": 29.9450835,
"longitude": -90.1261013
},
{
"name": "Massachusetts General Hospital Program",
"specialty": "Allergy and Immunology",
"location": "Boston, MA",
"latitude": 42.3652917,
"longitude": -71.0646337
},
{
"name": "Mayo Clinic College of Medicine and Science (Arizona) Program",
"specialty": "Allergy and Immunology",
"location": "Scottsdale, AZ",
"latitude": 33.5910441,
"longitude": -111.7972384
},
{
"name": "Mayo Clinic College of Medicine and Science (Rochester) Program",
"specialty": "Allergy and Immunology",
"location": "Rochester, MN",
"latitude": 44.0557303,
"longitude": -92.5253639
},
{
"name": "McGaw Medical Center of Northwestern University Program",
"specialty": "Allergy and Immunology",
"location": "Chicago, IL",
"latitude": 41.8925085,
"longitude": -87.61616959999999
},
{
"name": "Medical College of Georgia Program",
"specialty": "Allergy and Immunology",
"location": "Augusta, GA",
"latitude": 33.4706725,
"longitude": -81.9861463
},
{
"name": "Montefiore Medical Center/Albert Einstein College of Medicine Program",
"specialty": "Allergy and Immunology",
"location": "Bronx, NY",
"latitude": 40.8476284,
"longitude": -73.8360251
},
{
"name": "National Capital Consortium Program",
"specialty": "Allergy and Immunology",
"location": "Bethesda, MD",
"latitude": 39.0083306,
"longitude": -77.09637599999999
},
{
"name": "National Institutes of Health Clinical Center Program",
"specialty": "Allergy and Immunology",
"location": "Bethesda, MD",
"latitude": 39.0023604,
"longitude": -77.097455
},
{
"name": "New York Presbyterian Hospital (Columbia Campus) Program",
"specialty": "Allergy and Immunology",
"location": "New York, NY",
"latitude": 40.8409822,
"longitude": -73.9447994
},
{
"name": "Nicklaus Children's Hospital Program",
"specialty": "Allergy and Immunology",
"location": "Miami, FL",
"latitude": 25.7360194,
"longitude": -80.3157397
},
{
"name": "NYU Winthrop Hospital Program",
"specialty": "Allergy and Immunology",
"location": "Mineola, NY",
"latitude": 40.7476654,
"longitude": -73.6389038
},
{
"name": "Ohio State University Hospital Program",
"specialty": "Allergy and Immunology",
"location": "Columbus, OH",
"latitude": 39.98263960000001,
"longitude": -83.04150779999999
},
{
"name": "Penn State Milton S Hershey Medical Center Program",
"specialty": "Allergy and Immunology",
"location": "Hershey, PA",
"latitude": 40.2713328,
"longitude": -76.6297189
},
{
"name": "Rush University Medical Center Program",
"specialty": "Allergy and Immunology",
"location": "Chicago, IL",
"latitude": 41.8816606,
"longitude": -87.6926257
},
{
"name": "Rutgers New Jersey Medical School Program",
"specialty": "Allergy and Immunology",
"location": "Newark, NJ",
"latitude": 40.7383636,
"longitude": -74.197388
},
{
"name": "San Antonio Uniformed Services Health Education Consortium Program",
"specialty": "Allergy and Immunology",
"location": "San Antonio, TX",
"latitude": 29.3887899,
"longitude": -98.61057029999999
},
{
"name": "Scripps Clinic/Scripps Green Hospital Program",
"specialty": "Allergy and Immunology",
"location": "La Jolla, CA",
"latitude": 32.8283259,
"longitude": -117.255854
},
{
"name": "Sidney Kimmel Medical College at Thomas Jefferson University/duPont Hospital for Children Program",
"specialty": "Allergy and Immunology",
"location": "Wilmington, DE",
"latitude": 39.7961255,
"longitude": -75.5393155
},
{
"name": "St Louis University School of Medicine Program",
"specialty": "Allergy and Immunology",
"location": "St Louis, MO",
"latitude": 38.6160491,
"longitude": -90.2291565
},
{
"name": "Stanford Health Care-Sponsored Stanford University Program",
"specialty": "Allergy and Immunology",
"location": "Stanford, CA",
"latitude": 37.4135757,
"longitude": -122.1689284
},
{
"name": "SUNY Health Science Center at Brooklyn Program",
"specialty": "Allergy and Immunology",
"location": "Brooklyn, NY",
"latitude": 40.6515882,
"longitude": -73.93304289999999
},
{
"name": "Tulane University Program",
"specialty": "Allergy and Immunology",
"location": "New Orleans, LA",
"latitude": 29.95957689999999,
"longitude": -90.0770127
},
{
"name": "UCLA David Geffen School of Medicine/UCLA Medical Center Program",
"specialty": "Allergy and Immunology",
"location": "Los Angeles, CA",
"latitude": 34.070264,
"longitude": -118.4440562
},
{
"name": "University at Buffalo Program",
"specialty": "Allergy and Immunology",
"location": "Buffalo, NY",
"latitude": 42.8667771,
"longitude": -78.8750644
},
{
"name": "University of Alabama Medical Center Program",
"specialty": "Allergy and Immunology",
"location": "Birmingham, AL",
"latitude": 33.5118197,
"longitude": -86.8011326
},
{
"name": "University of Arizona College of Medicine-Tucson Program",
"specialty": "Allergy and Immunology",
"location": "Tucson, AZ",
"latitude": 32.2226066,
"longitude": -110.9747108
},
{
"name": "University of California (Irvine) Program",
"specialty": "Allergy and Immunology",
"location": "Irvine, CA",
"latitude": 33.6471239,
"longitude": -117.8421325
},
{
"name": "University of California (San Diego) Medical Center Program",
"specialty": "Allergy and Immunology",
"location": "La Jolla, CA",
"latitude": 32.88435520000001,
"longitude": -117.2338066
},
{
"name": "University of California (San Francisco) School of Medicine Program",
"specialty": "Allergy and Immunology",
"location": "San Francisco, CA",
"latitude": 37.7748363,
"longitude": -122.3872576
},
{
"name": "University of California Davis Health Program",
"specialty": "Allergy and Immunology",
"location": "Davis, CA",
"latitude": 38.5449065,
"longitude": -121.7405167
},
{
"name": "University of Cincinnati Medical Center/College of Medicine//Cincinnati Children's Program",
"specialty": "Allergy and Immunology",
"location": "Cincinnati, OH",
"latitude": 39.1540971,
"longitude": -84.485507
},
{
"name": "University of Colorado School of Medicine/Children's Hospital Colorado Program",
"specialty": "Allergy and Immunology",
"location": "Aurora, CO",
"latitude": 39.7503186,
"longitude": -104.8367063
},
{
"name": "University of Colorado School of Medicine/National Jewish Health (Pediatric) Program",
"specialty": "Allergy and Immunology",
"location": "Denver, CO",
"latitude": 39.7271021,
"longitude": -104.9564084
},
{
"name": "University of Colorado School of Medicine/National Jewish Health (Adult) Program",
"specialty": "Allergy and Immunology",
"location": "Denver, CO",
"latitude": 39.7271021,
"longitude": -104.9564084
},
{
"name": "University of Iowa Hospitals and Clinics Program",
"specialty": "Allergy and Immunology",
"location": "Iowa City, IA",
"latitude": 41.659363,
"longitude": -91.54870989999999
},
{
"name": "University of Kansas School of Medicine Program",
"specialty": "Allergy and Immunology",
"location": "Kansas City, KS",
"latitude": 39.06,
"longitude": -94.61
},
{
"name": "University of Michigan Health System Program",
"specialty": "Allergy and Immunology",
"location": "Ann Arbor, MI",
"latitude": 42.2721528,
"longitude": -83.7754758
},
{
"name": "University of Mississippi Medical Center Program",
"specialty": "Allergy and Immunology",
"location": "Jackson, MS",
"latitude": 32.3361632,
"longitude": -90.15652089999999
},
{
"name": "University of Missouri-Kansas City School of Medicine Program",
"specialty": "Allergy and Immunology",
"location": "Kansas City, MO",
"latitude": 39.0795392,
"longitude": -94.5985613
},
{
"name": "University of North Carolina Hospitals Program",
"specialty": "Allergy and Immunology",
"location": "Chapel Hill, NC",
"latitude": 35.905249,
"longitude": -79.0581498
},
{
"name": "University of Pennsylvania Health System Program",
"specialty": "Allergy and Immunology",
"location": "Philadelphia, PA",
"latitude": 39.9583587,
"longitude": -75.1953934
},
{
"name": "University of Puerto Rico Program",
"specialty": "Allergy and Immunology",
"location": "San Juan, PR",
"latitude": 18.466224,
"longitude": -66.1057244
},
{
"name": "University of Rochester Program",
"specialty": "Allergy and Immunology",
"location": "Rochester, NY",
"latitude": 43.12247660000001,
"longitude": -77.62425739999999
},
{
"name": "University of South Florida Morsani (All Children's) Program",
"specialty": "Allergy and Immunology",
"location": "St Petersburg, FL",
"latitude": 27.7696063,
"longitude": -82.6321376
},
{
"name": "University of South Florida Morsani Program",
"specialty": "Allergy and Immunology",
"location": "Tampa, FL",
"latitude": 28.0563834,
"longitude": -82.4427769
},
{
"name": "University of Southern California/LAC+USC Medical Center Program",
"specialty": "Allergy and Immunology",
"location": "Los Angeles, CA",
"latitude": 34.0502898,
"longitude": -118.2117257
},
{
"name": "University of Tennessee Program",
"specialty": "Allergy and Immunology",
"location": "Memphis, TN",
"latitude": 35.1428747,
"longitude": -90.0523125
},
{
"name": "University of Texas Medical Branch Hospitals Program",
"specialty": "Allergy and Immunology",
"location": "Galveston, TX",
"latitude": 29.3106102,
"longitude": -94.77724930000001
},
{
"name": "University of Texas Southwestern Medical School Program",
"specialty": "Allergy and Immunology",
"location": "Dallas, TX",
"latitude": 32.8113367,
"longitude": -96.8397899
},
{
"name": "University of Virginia Medical Center Program",
"specialty": "Allergy and Immunology",
"location": "Charlottesville, VA",
"latitude": 38.031942,
"longitude": -78.49858499999999
},
{
"name": "University of Washington Program",
"specialty": "Allergy and Immunology",
"location": "Seattle, WA",
"latitude": 47.6288591,
"longitude": -122.3456919
},
{
"name": "University of Wisconsin Hospitals and Clinics Program",
"specialty": "Allergy and Immunology",
"location": "Madison, WI",
"latitude": 43.0772547,
"longitude": -89.430773
},
{
"name": "UPMC Medical Education Program",
"specialty": "Allergy and Immunology",
"location": "Pittsburgh, PA",
"latitude": 40.467202,
"longitude": -79.94445259999999
},
{
"name": "VA Greater Los Angeles Healthcare System Program",
"specialty": "Allergy and Immunology",
"location": "Los Angeles, CA",
"latitude": 34.0522561,
"longitude": -118.452087
},
{
"name": "Vanderbilt University Medical Center Program",
"specialty": "Allergy and Immunology",
"location": "Nashville, TN",
"latitude": 36.1426398,
"longitude": -86.8001068
},
{
"name": "Virginia Commonwealth University Health System Program",
"specialty": "Allergy and Immunology",
"location": "Richmond, VA",
"latitude": 37.5433009,
"longitude": -77.4293184
},
{
"name": "Wake Forest University School of Medicine Program",
"specialty": "Allergy and Immunology",
"location": "Winston-Salem, NC",
"latitude": 36.0906568,
"longitude": -80.27153849999999
},
{
"name": "Washington University/B-JH/SLCH Consortium Program",
"specialty": "Allergy and Immunology",
"location": "St Louis, MO",
"latitude": 38.6212468,
"longitude": -90.2526163
},
{
"name": "Yale-New Haven Medical Center Program",
"specialty": "Allergy and Immunology",
"location": "New Haven, CT",
"latitude": 41.3064267,
"longitude": -72.9310217
},
{
"name": "Zucker School of Medicine at Hofstra/Northwell Program",
"specialty": "Allergy and Immunology",
"location": "Great Neck, NY",
"latitude": 40.7851185,
"longitude": -73.7271909
},
{
"name": "Advocate Health Care (Advocate Illinois Masonic Medical Center) Program",
"specialty": "Anesthesiology",
"location": " Chicago, IL",
"latitude": 41.9403795,
"longitude": -87.65318049999999
},
{
"name": "Albany Medical Center Program",
"specialty": "Anesthesiology",
"location": " Albany, NY",
"latitude": 42.6547387,
"longitude": -73.7889689
},
{
"name": "Allegheny Health Network Medical Education Consortium (AGH/WPH) Program",
"specialty": "Anesthesiology",
"location": " Pittsburgh, PA",
"latitude": 40.4828051,
"longitude": -80.0367259
},
{
"name": "Baylor College of Medicine Program",
"specialty": "Anesthesiology",
"location": " Houston, TX",
"latitude": 29.7050857,
"longitude": -95.40180869999999
},
{
"name": "Beaumont Health (Royal Oak) Program",
"specialty": "Anesthesiology",
"location": " Royal Oak, MI",
"latitude": 42.5183235,
"longitude": -83.15953999999999
},
{
"name": "Beth Israel Deaconess Medical Center Program",
"specialty": "Anesthesiology",
"location": " Boston, MA",
"latitude": 42.3476181,
"longitude": -71.1002881
},
{
"name": "Boston University Medical Center Program",
"specialty": "Anesthesiology",
"location": " Boston, MA",
"latitude": 42.3377967,
"longitude": -71.0705763
},
{
"name": "Brigham and Women's Hospital Program",
"specialty": "Anesthesiology",
"location": " Boston, MA",
"latitude": 42.339904,
"longitude": -71.0898892
},
{
"name": "Brown University/Rhode Island Hospital-Lifespan Program",
"specialty": "Anesthesiology",
"location": " Providence, RI",
"latitude": 41.816736,
"longitude": -71.40915629999999
},
{
"name": "Case Western Reserve University (MetroHealth) Program",
"specialty": "Anesthesiology",
"location": " Cleveland, OH",
"latitude": 41.4513221,
"longitude": -81.7021049
},
{
"name": "Case Western Reserve University/University Hospitals Cleveland Medical Center Program",
"specialty": "Anesthesiology",
"location": " Cleveland, OH",
"latitude": 41.5091257,
"longitude": -81.6089873
},
{
"name": "Cedars-Sinai Medical Center Program",
"specialty": "Anesthesiology",
"location": " Los Angeles, CA",
"latitude": 34.0741548,
"longitude": -118.3724915
},
{
"name": "Cleveland Clinic Florida Program",
"specialty": "Anesthesiology",
"location": " Weston, FL",
"latitude": 26.0621374,
"longitude": -80.3769999
},
{
"name": "Cleveland Clinic Foundation Program",
"specialty": "Anesthesiology",
"location": " Cleveland, OH",
"latitude": 41.5034177,
"longitude": -81.6204806
},
{
"name": "Cleveland Clinic Foundation/South Pointe Hospital Program",
"specialty": "Anesthesiology",
"location": " Warrensville Heights, OH",
"latitude": 41.4323067,
"longitude": -81.5102655
},
{
"name": "Cook County Health and Hospitals System Program",
"specialty": "Anesthesiology",
"location": " Chicago, IL",
"latitude": 41.8816606,
"longitude": -87.6926257
},
{
"name": "Cooper Medical School of Rowan University/Cooper University Hospital Program",
"specialty": "Anesthesiology",
"location": " Camden, NJ",
"latitude": 39.937645,
"longitude": -75.1136721
},
{
"name": "Detroit Medical Center/Wayne State University Program",
"specialty": "Anesthesiology",
"location": " Detroit, MI",
"latitude": 42.348495,
"longitude": -83.0602998
},
{
"name": "Doctors Hospital/OhioHealth Program",
"specialty": "Anesthesiology",
"location": " Columbus, OH",
"latitude": 39.9571056,
"longitude": -83.1273705
},
{
"name": "Drexel University College of Medicine/Hahnemann University Hospital Program",
"specialty": "Anesthesiology",
"location": " Philadelphia, PA",
"latitude": 39.9556241,
"longitude": -75.1647529
},
{
"name": "Duke University Hospital Program",
"specialty": "Anesthesiology",
"location": " Durham, NC",
"latitude": 36.0038131,
"longitude": -78.9387241
},
{
"name": "Emory University School of Medicine Program",
"specialty": "Anesthesiology",
"location": " Atlanta, GA",
"latitude": 33.7980995,
"longitude": -84.3259367
},
{
"name": "Geisinger Health System Program",
"specialty": "Anesthesiology",
"location": " Danville, PA",
"latitude": 40.9675163,
"longitude": -76.60444439999999
},
{
"name": "George Washington University Program",
"specialty": "Anesthesiology",
"location": " Washington, DC",
"latitude": 38.9042365,
"longitude": -77.0521289
},
{
"name": "Hackensack University Medical Center Program",
"specialty": "Anesthesiology",
"location": " Hackensack, NJ",
"latitude": 40.8876273,
"longitude": -74.04763779999999
},
{
"name": "HCA West Florida GME Consortium/Largo Medical Center Program",
"specialty": "Anesthesiology",
"location": " Largo, FL",
"latitude": 27.9180298,
"longitude": -82.79402970000001
},
{
"name": "HCA West Florida GME Consortium/Oak Hill Hospital Program",
"specialty": "Anesthesiology",
"location": " Brooksville, FL",
"latitude": 28.5552719,
"longitude": -82.3878709
},
{
"name": "Henry Ford Hospital/Wayne State University Program",
"specialty": "Anesthesiology",
"location": " Detroit, MI",
"latitude": 42.3664506,
"longitude": -83.0737195
},
{
"name": "Icahn School of Medicine at Mount Sinai Program",
"specialty": "Anesthesiology",
"location": " New York, NY",
"latitude": 40.79164069999999,
"longitude": -73.9447994
},
{
"name": "Icahn School of Medicine at Mount Sinai/St Luke’s-Roosevelt Hospital Center Program",
"specialty": "Anesthesiology",
"location": " New York, NY",
"latitude": 40.7999209,
"longitude": -73.96831019999999
},
{
"name": "Indiana University School of Medicine Program",
"specialty": "Anesthesiology",
"location": " Indianapolis, IN",
"latitude": 39.7794767,
"longitude": -86.1700894
},
{
"name": "Jackson Memorial Hospital/Jackson Health System Program",
"specialty": "Anesthesiology",
"location": " Miami, FL",
"latitude": 25.7870967,
"longitude": -80.2042436
},
{
"name": "Johns Hopkins University Program",
"specialty": "Anesthesiology",
"location": " Baltimore, MD",
"latitude": 39.2962372,
"longitude": -76.5928888
},
{
"name": "Kaweah Delta Health Care District (KDHCD) Program",
"specialty": "Anesthesiology",
"location": " Visalia, CA",
"latitude": 36.3696012,
"longitude": -119.3947135
},
{
"name": "Kendall Regional Medical Center Program",
"specialty": "Anesthesiology",
"location": " Miami, FL",
"latitude": 25.7357116,
"longitude": -80.3992652
},
{
"name": "Kettering Health Network Program",
"specialty": "Anesthesiology",
"location": " Dayton, OH",
"latitude": 39.7909447,
"longitude": -84.21207
},
{
"name": "Lahey Clinic Program",
"specialty": "Anesthesiology",
"location": " Burlington, MA",
"latitude": 42.4883003,
"longitude": -71.2015991
},
{
"name": "Larkin Community Hospital Program",
"specialty": "Anesthesiology",
"location": " South Miami , FL",
"latitude": 25.6993807,
"longitude": -80.29345219999999
},
{
"name": "Loma Linda University Health Education Consortium Program",
"specialty": "Anesthesiology",
"location": " Loma Linda, CA",
"latitude": 34.0484387,
"longitude": -117.2499749
},
{
"name": "Los Angeles County-Harbor-UCLA Medical Center Program",
"specialty": "Anesthesiology",
"location": " Torrance, CA",
"latitude": 33.83,
"longitude": -118.33
},
{
"name": "Louisiana State University (Shreveport) Program",
"specialty": "Anesthesiology",
"location": " Shreveport, LA",
"latitude": 32.49,
"longitude": -93.77
},
{
"name": "Louisiana State University Program",
"specialty": "Anesthesiology",
"location": " New Orleans, LA",
"latitude": 29.95957689999999,
"longitude": -90.0770127
},
{
"name": "Loyola University Medical Center Program",
"specialty": "Anesthesiology",
"location": " Maywood, IL",
"latitude": 41.8791979,
"longitude": -87.8431155
},
{
"name": "Maimonides Medical Center Program",
"specialty": "Anesthesiology",
"location": " Brooklyn, NY",
"latitude": 40.6310753,
"longitude": -73.9976946
},
{
"name": "Maine Medical Center Program",
"specialty": "Anesthesiology",
"location": " Portland, ME",
"latitude": 43.6611308,
"longitude": -70.2989334
},
{
"name": "Mary Hitchcock Memorial Hospital/Dartmouth-Hitchcock Program",
"specialty": "Anesthesiology",
"location": " Lebanon, NH",
"latitude": 43.6760215,
"longitude": -72.27309939999999
},
{
"name": "Massachusetts General Hospital Program",
"specialty": "Anesthesiology",
"location": " Boston, MA",
"latitude": 42.3652917,
"longitude": -71.0646337
},
{
"name": "Mayo Clinic College of Medicine and Science (Arizona) Program",
"specialty": "Anesthesiology",
"location": " Phoenix, AZ",
"latitude": 33.6923299,
"longitude": -111.9403254
},
{
"name": "Mayo Clinic College of Medicine and Science (Jacksonville) Program",
"specialty": "Anesthesiology",
"location": " Jacksonville, FL",
"latitude": 30.2606613,
"longitude": -81.46085599999999
},
{
"name": "Mayo Clinic College of Medicine and Science (Rochester) Program",
"specialty": "Anesthesiology",
"location": " Rochester, MN",
"latitude": 44.0557303,
"longitude": -92.5253639
},
{
"name": "McGaw Medical Center of Northwestern University Program",
"specialty": "Anesthesiology",
"location": " Chicago, IL",
"latitude": 41.8925085,
"longitude": -87.61616959999999
},
{
"name": "McLaren Health Care/Greater Lansing/MSU Program",
"specialty": "Anesthesiology",
"location": "Lansing, MI",
"latitude": 42.7043124,
"longitude": -84.5327038
},
{
"name": "McLaren Health Care/Oakland/MSU Program",
"specialty": "Anesthesiology",
"location": "Pontiac, MI",
"latitude": 42.642381,
"longitude": -83.27735899999999
},
{
"name": "Medical College of Georgia Program",
"specialty": "Anesthesiology",
"location": "Augusta, GA",
"latitude": 33.4706725,
"longitude": -81.9861463
},
{
"name": "Medical College of Wisconsin Affiliated Hospitals Program",
"specialty": "Anesthesiology",
"location": " Milwaukee, WI",
"latitude": 43.0513426,
"longitude": -88.0411993
},
{
"name": "Medical University of South Carolina Program",
"specialty": "Anesthesiology",
"location": " Charleston, SC",
"latitude": 32.785895,
"longitude": -79.94794960000002
},
{
"name": "MedStar Health/Georgetown University Hospital Program",
"specialty": "Anesthesiology",
"location": " Washington, DC",
"latitude": 38.9156487,
"longitude": -77.0737149
},
{
"name": "Montefiore Medical Center/Albert Einstein College of Medicine Program",
"specialty": "Anesthesiology",
"location": " Bronx, NY",
"latitude": 40.8723987,
"longitude": -73.8713099
},
{
"name": "Mount Sinai Medical Center of Florida, Inc Program",
"specialty": "Anesthesiology",
"location": " Miami Beach, FL",
"latitude": 25.8176795,
"longitude": -80.13727569999999
},
{
"name": "National Capital Consortium Program",
"specialty": "Anesthesiology",
"location": " Bethesda, MD",
"latitude": 39.0038878,
"longitude": -77.1053673
},
{
"name": "Naval Medical Center (Portsmouth) Program",
"specialty": "Anesthesiology",
"location": " Portsmouth, VA",
"latitude": 36.84982189999999,
"longitude": -76.305109
},
{
"name": "Naval Medical Center (San Diego) Program",
"specialty": "Anesthesiology",
"location": " San Diego, CA",
"latitude": 32.7240705,
"longitude": -117.1463285
},
{
"name": "New York Presbyterian Hospital (Columbia Campus) Program",
"specialty": "Anesthesiology",
"location": " New York, NY",
"latitude": 40.8409822,
"longitude": -73.9447994
},
{
"name": "New York Presbyterian Hospital (Cornell Campus) Program",
"specialty": "Anesthesiology",
"location": " New York, NY",
"latitude": 40.7645239,
"longitude": -73.96243270000001
},
{
"name": "New York University School of Medicine Program",
"specialty": "Anesthesiology",
"location": " New York, NY",
"latitude": 40.74727,
"longitude": -73.9800645
},
{
"name": "New York-Presbyterian Brooklyn Methodist Hospital Program",
"specialty": "Anesthesiology",
"location": " Brooklyn, NY",
"latitude": 40.6681669,
"longitude": -73.9800645
},
{
"name": "Ochsner Clinic Foundation Program",
"specialty": "Anesthesiology",
"location": " New Orleans, LA",
"latitude": 29.9595011,
"longitude": -90.16120289999999
},
{
"name": "Ohio State University Hospital Program",
"specialty": "Anesthesiology",
"location": " Columbus, OH",
"latitude": 39.9990626,
"longitude": -83.01733860000002
},
{
"name": "Oklahoma State University Center for Health Sciences Program",
"specialty": "Anesthesiology",
"location": " Tulsa, OK",
"latitude": 36.0993914,
"longitude": -96.0573302
},
{
"name": "Oregon Health & Science University Program",
"specialty": "Anesthesiology",
"location": " Portland, OR",
"latitude": 45.4874111,
"longitude": -122.6875541
},
{
"name": "Penn State Milton S Hershey Medical Center Program",
"specialty": "Anesthesiology",
"location": " Hershey, PA",
"latitude": 40.2713328,
"longitude": -76.6297189
},
{
"name": "Riverside University Health System Program",
"specialty": "Anesthesiology",
"location": " Moreno Valley, CA",
"latitude": 33.9206847,
"longitude": -117.1147095
},
{
"name": "Rush University Medical Center Program",
"specialty": "Anesthesiology",
"location": " Chicago, IL",
"latitude": 41.8816606,
"longitude": -87.6926257
},
{
"name": "Rutgers New Jersey Medical School Program",
"specialty": "Anesthesiology",
"location": " Newark, NJ",
"latitude": 40.7383636,
"longitude": -74.197388
},
{
"name": "Rutgers Robert Wood Johnson Medical School Program",
"specialty": "Anesthesiology",
"location": " New Brunswick, NJ",
"latitude": 40.4861552,
"longitude": -74.45185
},
{
"name": "San Antonio Uniformed Services Health Education Consortium Program",
"specialty": "Anesthesiology",
"location": " Fort Sam Houston, TX",
"latitude": 29.4569597,
"longitude": -98.4458421
},
{
"name": "Sidney Kimmel Medical College at Thomas Jefferson University/TJUH Program",
"specialty": "Anesthesiology",
"location": " Philadelphia, PA",
"latitude": 39.9559288,
"longitude": -75.1574567
},
{
"name": "St Barnabas Medical Center Program",
"specialty": "Anesthesiology",
"location": " Livingston, NJ",
"latitude": 40.7862871,
"longitude": -74.3300842
},
{
"name": "St Elizabeth's Medical Center Program",
"specialty": "Anesthesiology",
"location": " Boston, MA",
"latitude": 42.3463503,
"longitude": -71.1626756
},
{
"name": "St Joseph's University Medical Center Program",
"specialty": "Anesthesiology",
"location": " Paterson, NJ",
"latitude": 40.8955467,
"longitude": -74.156292
},
{
"name": "St Louis University School of Medicine Program",
"specialty": "Anesthesiology",
"location": " St. Louis, MO",
"latitude": 38.6212468,
"longitude": -90.2526163
},
{
"name": "Stanford Health Care-Sponsored Stanford University Program",
"specialty": "Anesthesiology",
"location": " Stanford, CA",
"latitude": 37.4135757,
"longitude": -122.1689284
},
{
"name": "Still OPTI/Northeast Regional Medical Center Program",
"specialty": "Anesthesiology",
"location": " Kirksville, MO",
"latitude": 40.19475389999999,
"longitude": -92.5832496
},
{
"name": "Stony Brook Medicine/University Hospital Program",
"specialty": "Anesthesiology",
"location": " Stony Brook, NY",
"latitude": 40.9132244,
"longitude": -73.1261091
},
{
"name": "Sunrise Health GME Consortium Program",
"specialty": "Anesthesiology",
"location": " Las Vegas, NV",
"latitude": 36.1988542,
"longitude": -115.2659777
},
{
"name": "SUNY Health Science Center at Brooklyn Program",
"specialty": "Anesthesiology",
"location": " Brooklyn, NY",
"latitude": 40.6515882,
"longitude": -73.93304289999999
},
{
"name": "SUNY Upstate Medical University Program",
"specialty": "Anesthesiology",
"location": " Syracuse, NY",
"latitude": 43.0347064,
"longitude": -76.1261969
},
{
"name": "Temple University Hospital Program",
"specialty": "Anesthesiology",
"location": " Philadelphia, PA",
"latitude": 40.012545,
"longitude": -75.14870069999999
},
{
"name": "Texas A&M College of Medicine-Scott and White Medical Center (Temple) Program",
"specialty": "Anesthesiology",
"location": " Temple, TX",
"latitude": 31.0776033,
"longitude": -97.3639982
},
{
"name": "Texas Tech University Health Sciences Center at Lubbock Program",
"specialty": "Anesthesiology",
"location": " Lubbock, TX",
"latitude": 33.5869836,
"longitude": -101.899153
},
{
"name": "Tufts Medical Center Program",
"specialty": "Anesthesiology",
"location": " Boston, MA",
"latitude": 42.3514653,
"longitude": -71.0601767
},
{
"name": "Tulane University Program",
"specialty": "Anesthesiology",
"location": " New Orleans, LA",
"latitude": 29.95957689999999,
"longitude": -90.0770127
},
{
"name": "UCLA David Geffen School of Medicine/UCLA Medical Center Program",
"specialty": "Anesthesiology",
"location": " Los Angeles, CA",
"latitude": 34.070264,
"longitude": -118.4440562
},
{
"name": "UMMS-Baystate Program",
"specialty": "Anesthesiology",
"location": " Springfield, MA",
"latitude": 42.1208719,
"longitude": -72.6029199
},
{
"name": "University at Buffalo Program",
"specialty": "Anesthesiology",
"location": " Buffalo, NY",
"latitude": 42.8667771,
"longitude": -78.8750644
},
{
"name": "University of Alabama Medical Center Program",
"specialty": "Anesthesiology",
"location": " Birmingham, AL",
"latitude": 33.5123813,
"longitude": -86.8956738
},
{
"name": "University of Arizona College of Medicine-Tucson Program",
"specialty": "Anesthesiology",
"location": " Tucson, AZ",
"latitude": 32.2402988,
"longitude": -110.9454478
},
{
"name": "University of Arkansas for Medical Sciences Program",
"specialty": "Anesthesiology",
"location": " Little Rock, AR",
"latitude": 34.7486563,
"longitude": -92.3542193
},
{
"name": "University of California (Irvine) Program",
"specialty": "Anesthesiology",
"location": " Orange, CA",
"latitude": 33.78659,
"longitude": -117.8750976
},
{
"name": "University of California (San Diego) Medical Center Program",
"specialty": "Anesthesiology",
"location": " San Diego, CA",
"latitude": 32.749789,
"longitude": -117.1676501
},
{
"name": "University of California (San Francisco) Program",
"specialty": "Anesthesiology",
"location": " San Francisco, CA",
"latitude": 37.7642093,
"longitude": -122.4571623
},
{
"name": "University of California Davis Health Program",
"specialty": "Anesthesiology",
"location": " Sacramento, CA",
"latitude": 38.5500434,
"longitude": -121.4599012
},
{
"name": "University of Central Florida/HCA GME Consortium Program",
"specialty": "Anesthesiology",
"location": " Ocala, FL",
"latitude": 29.1571921,
"longitude": -82.1223977
},
{
"name": "University of Chicago Program",
"specialty": "Anesthesiology",
"location": " Chicago, IL",
"latitude": 41.7805099,
"longitude": -87.603826
},
{
"name": "University of Cincinnati Medical Center/College of Medicine Program",
"specialty": "Anesthesiology",
"location": " Cincinnati, OH",
"latitude": 39.1367664,
"longitude": -84.50229879999999
},
{
"name": "University of Colorado Program",
"specialty": "Anesthesiology",
"location": " Aurora, CO",
"latitude": 39.7503186,
"longitude": -104.8367063
},
{
"name": "University of Connecticut Program",
"specialty": "Anesthesiology",
"location": " Farmington, CT",
"latitude": 41.7324663,
"longitude": -72.8072342
},
{
"name": "University of Florida College of Medicine Jacksonville Program",
"specialty": "Anesthesiology",
"location": " Jacksonville, FL",
"latitude": 30.36173479999999,
"longitude": -81.69663059999999
},
{
"name": "University of Florida Program",
"specialty": "Anesthesiology",
"location": " Gainesville, FL",
"latitude": 29.6389921,
"longitude": -82.3430269
},
{
"name": "University of Illinois College of Medicine at Chicago Program",
"specialty": "Anesthesiology",
"location": " Chicago, IL",
"latitude": 41.8816606,
"longitude": -87.6926257
},
{
"name": "University of Iowa Hospitals and Clinics Program",
"specialty": "Anesthesiology",
"location": " Iowa City, IA",
"latitude": 41.659363,
"longitude": -91.54870989999999
},
{
"name": "University of Kansas (Wichita) Program",
"specialty": "Anesthesiology",
"location": " Wichita, KS",
"latitude": 37.70405239999999,
"longitude": -97.3138554
},
{
"name": "University of Kansas School of Medicine Program",
"specialty": "Anesthesiology",
"location": " Kansas City, KS",
"latitude": 39.06,
"longitude": -94.61
},
{
"name": "University of Kentucky College of Medicine Program",
"specialty": "Anesthesiology",
"location": " Lexington, KY",
"latitude": 38.0328237,
"longitude": -84.5067424
},
{
"name": "University of Louisville School of Medicine Program",
"specialty": "Anesthesiology",
"location": " Louisville, KY",
"latitude": 38.25569280000001,
"longitude": -85.751283
},
{
"name": "University of Maryland Program",
"specialty": "Anesthesiology",
"location": " Baltimore, MD",
"latitude": 39.2963369,
"longitude": -76.62105389999999
},
{
"name": "University of Massachusetts Program",
"specialty": "Anesthesiology",
"location": " Worcester, MA",
"latitude": 42.27174429999999,
"longitude": -71.7588217
},
{
"name": "University of Michigan Health System Program",
"specialty": "Anesthesiology",
"location": " Ann Arbor, MI",
"latitude": 42.3053253,
"longitude": -83.6694169
},
{
"name": "University of Minnesota Program",
"specialty": "Anesthesiology",
"location": " Minneapolis, MN",
"latitude": 44.97415609999999,
"longitude": -93.2342
},
{
"name": "University of Mississippi Medical Center Program",
"specialty": "Anesthesiology",
"location": " Jackson, MS",
"latitude": 32.3361632,
"longitude": -90.15652089999999
},
{
"name": "University of Missouri-Columbia Program",
"specialty": "Anesthesiology",
"location": " Columbia, MO",
"latitude": 38.9385874,
"longitude": -92.32801649999999
},
{
"name": "University of Missouri-Kansas City School of Medicine Program",
"specialty": "Anesthesiology",
"location": " Kansas City, MO",
"latitude": 39.0587452,
"longitude": -94.5985613
},
{
"name": "University of Nebraska Medical Center College of Medicine Program",
"specialty": "Anesthesiology",
"location": " Omaha, NE",
"latitude": 41.25525409999999,
"longitude": -95.97962249999999
},
{
"name": "University of New Mexico School of Medicine Program",
"specialty": "Anesthesiology",
"location": " Albuquerque, NM",
"latitude": 35.09,
"longitude": -106.62
},
{
"name": "University of North Carolina Hospitals Program",
"specialty": "Anesthesiology",
"location": " Chapel Hill, NC",
"latitude": 35.905249,
"longitude": -79.0581498
},
{
"name": "University of Oklahoma Health Sciences Center Program",
"specialty": "Anesthesiology",
"location": " Oklahoma City, OK",
"latitude": 35.4718556,
"longitude": -97.50577369999999
},
{
"name": "University of Pennsylvania Health System Program",
"specialty": "Anesthesiology",
"location": " Philadelphia, PA",
"latitude": 39.9583587,
"longitude": -75.1953934
},
{
"name": "University of Puerto Rico Program",
"specialty": "Anesthesiology",
"location": " San Juan, PR",
"latitude": 18.466224,
"longitude": -66.1057244
},
{
"name": "University of Rochester Program",
"specialty": "Anesthesiology",
"location": " Rochester, NY",
"latitude": 43.12247660000001,
"longitude": -77.62425739999999
},
{
"name": "University of Southern California/LAC+USC Medical Center Program",
"specialty": "Anesthesiology",
"location": " Los Angeles, CA",
"latitude": 34.0502898,
"longitude": -118.2117257
},
{
"name": "University of Tennessee Medical Center at Knoxville Program",
"specialty": "Anesthesiology",
"location": " Knoxville, TN",
"latitude": 35.9113041,
"longitude": -83.8685072
},
{
"name": "University of Texas Health Science Center at Houston Program",
"specialty": "Anesthesiology",
"location": " Houston, TX",
"latitude": 29.7050857,
"longitude": -95.40180869999999
},
{
"name": "University of Texas Health Science Center San Antonio Joe and Teresa Lozano Long School of Medicine Program",
"specialty": "Anesthesiology",
"location": " San Antonio, TX",
"latitude": 29.5060908,
"longitude": -98.577596
},
{
"name": "University of Texas Medical Branch Hospitals Program",
"specialty": "Anesthesiology",
"location": " Galveston, TX",
"latitude": 29.3106102,
"longitude": -94.77724930000001
},
{
"name": "University of Texas Southwestern Medical School Program",
"specialty": "Anesthesiology",
"location": " Dallas, TX",
"latitude": 32.8113367,
"longitude": -96.8397899
},
{
"name": "University of Toledo Program",
"specialty": "Anesthesiology",
"location": " Toledo, OH",
"latitude": 41.5993157,
"longitude": -83.6295222
},
{
"name": "University of Utah Program",
"specialty": "Anesthesiology",
"location": " Salt Lake City, UT",
"latitude": 40.7704811,
"longitude": -111.8367368
},
{
"name": "University of Vermont Medical Center Program",
"specialty": "Anesthesiology",
"location": " Burlington, VT",
"latitude": 44.4758442,
"longitude": -73.212121
},
{
"name": "University of Virginia Medical Center Program",
"specialty": "Anesthesiology",
"location": " Charlottesville, VA",
"latitude": 38.031942,
"longitude": -78.49858499999999
},
{
"name": "University of Washington Program",
"specialty": "Anesthesiology",
"location": " Seattle, WA",
"latitude": 47.6508882,
"longitude": -122.3084023
},
{
"name": "University of Wisconsin Hospitals and Clinics Program",
"specialty": "Anesthesiology",
"location": " Madison, WI",
"latitude": 43.0772547,
"longitude": -89.430773
},
{
"name": "UPMC Medical Education Program",
"specialty": "Anesthesiology",
"location": " Pittsburgh, PA",
"latitude": 40.4379259,
"longitude": -79.9556424
},
{
"name": "UPMC Pinnacle Lititz Program",
"specialty": "Anesthesiology",
"location": " Lititz, PA",
"latitude": 40.1573169,
"longitude": -76.3069014
},
{
"name": "Vanderbilt University Medical Center Program",
"specialty": "Anesthesiology",
"location": " Nashville, TN",
"latitude": 36.1426398,
"longitude": -86.8001068
},
{
"name": "Virginia Commonwealth University Health System Program",
"specialty": "Anesthesiology",
"location": " Richmond, VA",
"latitude": 37.5433009,
"longitude": -77.4293184
},
{
"name": "Virginia Mason Medical Center Program",
"specialty": "Anesthesiology",
"location": " Seattle, WA",
"latitude": 47.60993370000001,
"longitude": -122.3399892
},
{
"name": "Wake Forest University School of Medicine Program",
"specialty": "Anesthesiology",
"location": " Winston-Salem, NC",
"latitude": 36.0906568,
"longitude": -80.27153849999999
},
{
"name": "Washington University/B-JH/SLCH Consortium Program",
"specialty": "Anesthesiology",
"location": " St Louis, MO",
"latitude": 38.6212468,
"longitude": -90.2526163
},
{
"name": "Wayne State University School of Medicine Program",
"specialty": "Anesthesiology",
"location": " Pontiac, MI",
"latitude": 42.624141,
"longitude": -83.2987576
},
{
"name": "West Virginia University Program",
"specialty": "Anesthesiology",
"location": " Morgantown, WV",
"latitude": 39.654181,
"longitude": -79.9594886
},
{
"name": "Westchester Medical Center Program",
"specialty": "Anesthesiology",
"location": " Valhalla, NY",
"latitude": 41.085128,
"longitude": -73.7772032
},
{
"name": "Yale-New Haven Medical Center Program",
"specialty": "Anesthesiology",
"location": " New Haven, CT",
"latitude": 41.3052226,
"longitude": -72.92686259999999
},
{
"name": "Zucker School of Medicine at Hofstra/Northwell Program",
"specialty": "Anesthesiology",
"location": " Manhasset, NY",
"latitude": 40.7960005,
"longitude": -73.6830521
},
{
"name": "Baylor College of Medicine Program",
"specialty": "Child Neurology",
"location": "Houston, TX",
"latitude": 29.7050857,
"longitude": -95.40180869999999
},
{
"name": "Boston University Medical Center Program",
"specialty": "Child Neurology",
"location": "Boston, MA",
"latitude": 42.3377967,
"longitude": -71.0705763
},
{
"name": "Case Western Reserve University/University Hospitals Cleveland Medical Center Program",
"specialty": "Child Neurology",
"location": "Cleveland, OH",
"latitude": 41.5091257,
"longitude": -81.6089873
},
{
"name": "Children's Hospital of Los Angeles Program",
"specialty": "Child Neurology",
"location": "Los Angeles, CA",
"latitude": 34.1220545,
"longitude": -118.2935891
},
{
"name": "Children's Hospital of Philadelphia Program",
"specialty": "Child Neurology",
"location": "Philadelphia, PA",
"latitude": 39.9583587,
"longitude": -75.1953934
},
{
"name": "Children's Hospital/Beth Israel Deaconess Medical Center/Harvard Medical School Program",
"specialty": "Child Neurology",
"location": "Boston, MA",
"latitude": 42.339904,
"longitude": -71.0898892
},
{
"name": "Children's Mercy Hospital/University of Kansas Medical Center Program",
"specialty": "Child Neurology",
"location": "Kansas City, MO",
"latitude": 39.0795392,
"longitude": -94.5985613
},
{
"name": "Children's National Medical Center/George Washington University Program",
"specialty": "Child Neurology",
"location": "Washington, DC",
"latitude": 38.9339046,
"longitude": -77.03053899999999
},
{
"name": "Cincinnati Children's Hospital Medical Center Program",
"specialty": "Child Neurology",
"location": "Cincinnati, OH",
"latitude": 39.1540971,
"longitude": -84.485507
},
{
"name": "Cleveland Clinic Foundation Program",
"specialty": "Child Neurology",
"location": "Cleveland, OH",
"latitude": 41.5034177,
"longitude": -81.6204806
},
{
"name": "Detroit Medical Center/Wayne State University Program",
"specialty": "Child Neurology",
"location": "Detroit, MI",
"latitude": 42.348495,
"longitude": -83.0602998
},
{
"name": "Duke University Hospital Program",
"specialty": "Child Neurology",
"location": "Durham, NC",
"latitude": 36.0038131,
"longitude": -78.9387241
},
{
"name": "Emory University School of Medicine Program",
"specialty": "Child Neurology",
"location": "Atlanta, GA",
"latitude": 33.81842,
"longitude": -84.3594626
},
{
"name": "Indiana University School of Medicine Program",
"specialty": "Child Neurology",
"location": "Indianapolis, IN",
"latitude": 39.7794767,
"longitude": -86.1700894
},
{
"name": "Johns Hopkins University Program",
"specialty": "Child Neurology",
"location": "Baltimore, MD",
"latitude": 39.2962372,
"longitude": -76.5928888
},
{
"name": "Loma Linda University Health Education Consortium Program",
"specialty": "Child Neurology",
"location": "Loma Linda, CA",
"latitude": 34.0484387,
"longitude": -117.2499749
},
{
"name": "Louisiana State University Program",
"specialty": "Child Neurology",
"location": "New Orleans, LA",
"latitude": 29.9450835,
"longitude": -90.1261013
},
{
"name": "Massachusetts General Hospital Program",
"specialty": "Child Neurology",
"location": "Boston, MA",
"latitude": 42.3652917,
"longitude": -71.0646337
},
{
"name": "Mayo Clinic College of Medicine and Science (Jacksonville) Program",
"specialty": "Child Neurology",
"location": "Jacksonville, FL",
"latitude": 30.2949194,
"longitude": -81.63638689999999
},
{
"name": "Mayo Clinic College of Medicine and Science (Rochester) Program",
"specialty": "Child Neurology",
"location": "Rochester, MN",
"latitude": 44.0557303,
"longitude": -92.5253639
},
{
"name": "McGaw Medical Center of Northwestern University Program",
"specialty": "Child Neurology",
"location": "Chicago, IL",
"latitude": 41.8925085,
"longitude": -87.61616959999999
},
{
"name": "Medical College of Georgia Program",
"specialty": "Child Neurology",
"location": "Augusta, GA",
"latitude": 33.4706725,
"longitude": -81.9861463
},
{
"name": "Medical College of Wisconsin Affiliated Hospitals Program",
"specialty": "Child Neurology",
"location": "Milwaukee, WI",
"latitude": 43.03,
"longitude": -87.92
},
{
"name": "Medical University of South Carolina Program",
"specialty": "Child Neurology",
"location": "Charleston, SC",
"latitude": 32.785895,
"longitude": -79.94794960000002
},
{
"name": "Montefiore Medical Center/Albert Einstein College of Medicine Program",
"specialty": "Child Neurology",
"location": "Bronx, NY",
"latitude": 40.8476284,
"longitude": -73.8360251
},
{
"name": "National Capital Consortium Program",
"specialty": "Child Neurology",
"location": "Bethesda, MD",
"latitude": 39.0083306,
"longitude": -77.09637599999999
},
{
"name": "Nationwide Children's Hospital/Ohio State University Program",
"specialty": "Child Neurology",
"location": "Columbus, OH",
"latitude": 39.9576567,
"longitude": -82.9662859
},
{
"name": "New York Presbyterian Hospital (Columbia Campus) Program",
"specialty": "Child Neurology",
"location": "New York, NY",
"latitude": 40.8409822,
"longitude": -73.9447994
},
{
"name": "New York Presbyterian Hospital (Cornell Campus) Program",
"specialty": "Child Neurology",
"location": "New York, NY",
"latitude": 40.7645239,
"longitude": -73.96243270000001
},
{
"name": "New York University School of Medicine Program",
"specialty": "Child Neurology",
"location": "New York, NY",
"latitude": 40.74727,
"longitude": -73.9800645
},
{
"name": "Oregon Health & Science University Program",
"specialty": "Child Neurology",
"location": "Portland, OR",
"latitude": 45.4874111,
"longitude": -122.6875541
},
{
"name": "Phoenix Children's Hospital Program",
"specialty": "Child Neurology",
"location": "Phoenix, AZ",
"latitude": 33.5106684,
"longitude": -112.029752
},
{
"name": "Rutgers New Jersey Medical School Program",
"specialty": "Child Neurology",
"location": "Newark, NJ",
"latitude": 40.7305359,
"longitude": -74.1730726
},
{
"name": "Sidney Kimmel Medical College at Thomas Jefferson University/DuPont Hospital for Children Program",
"specialty": "Child Neurology",
"location": "Wilmington, DE",
"latitude": 39.7961255,
"longitude": -75.5393155
},
{
"name": "St Christopher's Hospital for Children Program",
"specialty": "Child Neurology",
"location": "Philadelphia, PA",
"latitude": 39.9863531,
"longitude": -75.1019942
},
{
"name": "St Louis University School of Medicine Program",
"specialty": "Child Neurology",
"location": "St. Louis, MO",
"latitude": 38.6160491,
"longitude": -90.2291565
},
{
"name": "Stanford Health Care-Sponsored Stanford University Program",
"specialty": "Child Neurology",
"location": "Palo Alto, CA",
"latitude": 37.4156453,
"longitude": -122.1494801
},
{
"name": "Stony Brook Medicine/University Hospital Program",
"specialty": "Child Neurology",
"location": "Stony Brook, NY",
"latitude": 40.9088733,
"longitude": -73.1149015
},
{
"name": "SUNY Health Science Center at Brooklyn Program",
"specialty": "Child Neurology",
"location": "Brooklyn, NY",
"latitude": 40.6515882,
"longitude": -73.93304289999999
},
{
"name": "Tufts Medical Center Program",
"specialty": "Child Neurology",
"location": "Boston, MA",
"latitude": 42.3514653,
"longitude": -71.0601767
},
{
"name": "UCLA David Geffen School of Medicine/UCLA Medical Center Program",
"specialty": "Child Neurology",
"location": "Los Angeles, CA",
"latitude": 34.070264,
"longitude": -118.4440562
},
{
"name": "University at Buffalo Program",
"specialty": "Child Neurology",
"location": "Buffalo, NY",
"latitude": 42.8943161,
"longitude": -78.8736493
},
{
"name": "University of Alabama Medical Center Program",
"specialty": "Child Neurology",
"location": "Birmingham, AL",
"latitude": 33.5118197,
"longitude": -86.8011326
},
{
"name": "University of Arkansas for Medical Sciences Program",
"specialty": "Child Neurology",
"location": "Little Rock, AR",
"latitude": 34.7359274,
"longitude": -92.2975183
},
{
"name": "University of California (Irvine) Program",
"specialty": "Child Neurology",
"location": "Orange, CA",
"latitude": 33.78659,
"longitude": -117.8750976
},
{
"name": "University of California (San Diego) Medical Center Program",
"specialty": "Child Neurology",
"location": "La Jolla, CA",
"latitude": 32.88435520000001,
"longitude": -117.2338066
},
{
"name": "University of California (San Francisco) Program",
"specialty": "Child Neurology",
"location": "San Francisco, CA",
"latitude": 37.7642093,
"longitude": -122.4571623
},
{
"name": "University of Chicago Program",
"specialty": "Child Neurology",
"location": "Chicago, IL",
"latitude": 41.7805099,
"longitude": -87.603826
},
{
"name": "University of Colorado Program",
"specialty": "Child Neurology",
"location": "Aurora, CO",
"latitude": 39.7503186,
"longitude": -104.8367063
},
{
"name": "University of Florida College of Medicine Program",
"specialty": "Child Neurology",
"location": "Gainesville, FL",
"latitude": 29.6389921,
"longitude": -82.3430269
},
{
"name": "University of Iowa Hospitals and Clinics Program",
"specialty": "Child Neurology",
"location": "Iowa City, IA",
"latitude": 41.659363,
"longitude": -91.54870989999999
},
{
"name": "University of Kentucky College of Medicine Program",
"specialty": "Child Neurology",
"location": "Lexington, KY",
"latitude": 38.0328237,
"longitude": -84.5067424
},
{
"name": "University of Louisville School of Medicine Program",
"specialty": "Child Neurology",
"location": "Louisville, KY",
"latitude": 38.21692609999999,
"longitude": -85.7624992
},
{
"name": "University of Michigan Health System Program",
"specialty": "Child Neurology",
"location": "Ann Arbor, MI",
"latitude": 42.3053253,
"longitude": -83.6694169
},
{
"name": "University of Mississippi Medical Center Program",
"specialty": "Child Neurology",
"location": "Jackson, MS",
"latitude": 32.3361632,
"longitude": -90.15652089999999
},
{
"name": "University of New Mexico School of Medicine Program",
"specialty": "Child Neurology",
"location": "Albuquerque, NM",
"latitude": 35.0843859,
"longitude": -106.650422
},
{
"name": "University of North Carolina Hospitals Program",
"specialty": "Child Neurology",
"location": "Chapel Hill, NC",
"latitude": 35.905249,
"longitude": -79.0581498
},
{
"name": "University of Puerto Rico Program",
"specialty": "Child Neurology",
"location": "San Juan, PR",
"latitude": 18.466224,
"longitude": -66.1057244
},
{
"name": "University of Rochester Program",
"specialty": "Child Neurology",
"location": "Rochester, NY",
"latitude": 43.12247660000001,
"longitude": -77.62425739999999
},
{
"name": "University of Tennessee Program",
"specialty": "Child Neurology",
"location": "Memphis, TN",
"latitude": 35.1428747,
"longitude": -90.0523125
},
{
"name": "University of Tennessee Program",
"specialty": "Child Neurology",
"location": "Memphis, TN",
"latitude": 35.1516237,
"longitude": -90.0349866
},
{
"name": "University of Texas Health Science Center at Houston Program",
"specialty": "Child Neurology",
"location": "Houston, TX",
"latitude": 29.7050857,
"longitude": -95.40180869999999
},
{
"name": "University of Texas Southwestern Medical School Program",
"specialty": "Child Neurology",
"location": "Dallas, TX",
"latitude": 32.815869,
"longitude": -96.84492469999999
},
{
"name": "University of Utah Program",
"specialty": "Child Neurology",
"location": "Salt Lake City, UT",
"latitude": 40.76020159999999,
"longitude": -111.8337558
},
{
"name": "University of Virginia Medical Center Program",
"specialty": "Child Neurology",
"location": "Charlottesville, VA",
"latitude": 38.031942,
"longitude": -78.49858499999999
},
{
"name": "University of Washington Program",
"specialty": "Child Neurology",
"location": "Seattle, WA",
"latitude": 47.6614244,
"longitude": -122.2683743
},
{
"name": "UPMC Medical Education Program",
"specialty": "Child Neurology",
"location": "Pittsburgh, PA",
"latitude": 40.467202,
"longitude": -79.94445259999999
},
{
"name": "Vanderbilt University Medical Center Program",
"specialty": "Child Neurology",
"location": "Nashville, TN",
"latitude": 36.1426398,
"longitude": -86.8001068
},
{
"name": "Virginia Commonwealth University Health System Program",
"specialty": "Child Neurology",
"location": "Richmond, VA",
"latitude": 37.5433009,
"longitude": -77.4293184
},
{
"name": "Wake Forest University School of Medicine Program",
"specialty": "Child Neurology",
"location": "Winston-Salem, NC",
"latitude": 36.0906568,
"longitude": -80.27153849999999
},
{
"name": "Washington University/B-JH/SLCH Consortium Program",
"specialty": "Child Neurology",
"location": "St. Louis, MO",
"latitude": 38.6212468,
"longitude": -90.2526163
},
{
"name": "West Virginia University Program",
"specialty": "Child Neurology",
"location": "Morgantown, WV",
"latitude": 39.654181,
"longitude": -79.9594886
},
{
"name": "Yale-New Haven Hospital Program",
"specialty": "Child Neurology",
"location": "New Haven, CT",
"latitude": 41.3052226,
"longitude": -72.92686259999999
},
{
"name": "Zucker School of Medicine at Hofstra/Northwell at Cohen Children's Medical Center Program",
"specialty": "Child Neurology",
"location": "New Hyde Park, NY",
"latitude": 40.7572158,
"longitude": -73.69629479999999
},
{
"name": "Albany Medical Center Program",
"specialty": "Colon and Rectal Surgery",
"location": "Albany, NY",
"latitude": 42.6547387,
"longitude": -73.7889689
},
{
"name": "Allegheny Health Network Medical Education Consortium (SVH) Program",
"specialty": "Colon and Rectal Surgery",
"location": "Erie, PA",
"latitude": 42.1111797,
"longitude": -80.078735
},
{
"name": "Baylor University Medical Center Program",
"specialty": "Colon and Rectal Surgery",
"location": "Dallas, TX",
"latitude": 32.7962048,
"longitude": -96.7694752
},
{
"name": "Beaumont Health (Royal Oak) Program",
"specialty": "Colon and Rectal Surgery",
"location": "Royal Oak, MI",
"latitude": 42.5183235,
"longitude": -83.15954
},
{
"name": "Beth Israel Deaconess Medical Center Program",
"specialty": "Colon and Rectal Surgery",
"location": "Boston, MA",
"latitude": 42.3476181,
"longitude": -71.1002881
},
{
"name": "Brigham and Women's Hospital Program",
"specialty": "Colon and Rectal Surgery",
"location": "Boston, MA",
"latitude": 42.339904,
"longitude": -71.0898892
},
{
"name": "Brown University Program",
"specialty": "Colon and Rectal Surgery",
"location": "Providence, RI",
"latitude": 41.816736,
"longitude": -71.4091563
},
{
"name": "Case Western Reserve University/University Hospitals Cleveland Medical Center Program",
"specialty": "Colon and Rectal Surgery",
"location": "Cleveland, OH",
"latitude": 41.5091257,
"longitude": -81.6089873
},
{
"name": "Cedars-Sinai Medical Center Program",
"specialty": "Colon and Rectal Surgery",
"location": "Los Angeles, CA",
"latitude": 34.0741548,
"longitude": -118.3724915
},
{
"name": "Cleveland Clinic (Florida) Program",
"specialty": "Colon and Rectal Surgery",
"location": "Weston, FL",
"latitude": 26.0621374,
"longitude": -80.3769999
},
{
"name": "Cleveland Clinic Foundation Program",
"specialty": "Colon and Rectal Surgery",
"location": "Cleveland, OH",
"latitude": 41.5034177,
"longitude": -81.6204806
},
{
"name": "Cook County Health and Hospitals System Program",
"specialty": "Colon and Rectal Surgery",
"location": "Chicago, IL",
"latitude": 41.8816606,
"longitude": -87.6926257
},
{
"name": "Creighton University School of Medicine (Omaha) Program",
"specialty": "Colon and Rectal Surgery",
"location": "Omaha, NE",
"latitude": 41.2674199,
"longitude": -96.0520363
},
{
"name": "Florida Hospital Medical Center Program",
"specialty": "Colon and Rectal Surgery",
"location": "Orlando, FL",
"latitude": 28.5747416,
"longitude": -81.3949264
},
{
"name": "Grant Medical Center (OhioHealth) Program",
"specialty": "Colon and Rectal Surgery",
"location": "Columbus, OH",
"latitude": 39.9602601,
"longitude": -83.0092803
},
{
"name": "Greater Baltimore Medical Center Program",
"specialty": "Colon and Rectal Surgery",
"location": "Towson, MD",
"latitude": 39.407567,
"longitude": -76.6354952
},
{
"name": "Greenville Health System/University of South Carolina Program",
"specialty": "Colon and Rectal Surgery",
"location": "Greenville, SC",
"latitude": 34.7671945,
"longitude": -82.3777335
},
{
"name": "Henry Ford Hospital/Wayne State University Program",
"specialty": "Colon and Rectal Surgery",
"location": "Detroit, MI",
"latitude": 42.3664506,
"longitude": -83.0737195
},
{
"name": "Icahn School of Medicine at Mount Sinai Program",
"specialty": "Colon and Rectal Surgery",
"location": "New York, NY",
"latitude": 40.7916407,
"longitude": -73.9447994
},
{
"name": "Icahn School of Medicine at Mount Sinai/St Luke's-Roosevelt Hospital Center Program",
"specialty": "Colon and Rectal Surgery",
"location": "New York, NY",
"latitude": 40.7686973,
"longitude": -73.9918181
},
{
"name": "Indiana University School of Medicine Program",
"specialty": "Colon and Rectal Surgery",
"location": "Mooresville, IN",
"latitude": 39.6128243,
"longitude": -86.37416
},
{
"name": "Jackson Memorial Hospital/Jackson Health System Program",
"specialty": "Colon and Rectal Surgery",
"location": "Miami, FL",
"latitude": 25.7870967,
"longitude": -80.2042436
},
{
"name": "Lahey Clinic Program",
"specialty": "Colon and Rectal Surgery",
"location": "Burlington, MA",
"latitude": 42.4883003,
"longitude": -71.2015991
},
{
"name": "Lehigh Valley Health Network/University of South Florida College of Medicine Program",
"specialty": "Colon and Rectal Surgery",
"location": "Allentown, PA",
"latitude": 40.6,
"longitude": -75.47
},
{
"name": "Louisiana State University (Shreveport) Program",
"specialty": "Colon and Rectal Surgery",
"location": "Shreveport, LA",
"latitude": 32.49,
"longitude": -93.77
},
{
"name": "Louisiana State University School of Medicine Program",
"specialty": "Colon and Rectal Surgery",
"location": "New Orleans, LA",
"latitude": 29.9595769,
"longitude": -90.0770127
},
{
"name": "Mayo Clinic College of Medicine and Science (Rochester) Program",
"specialty": "Colon and Rectal Surgery",
"location": "Rochester, MN",
"latitude": 44.0557303,
"longitude": -92.5253639
},
{
"name": "MedStar Heath/Washington Hospital Center Program",
"specialty": "Colon and Rectal Surgery",
"location": "Washington, DC",
"latitude": 38.9339046,
"longitude": -77.030539
},
{
"name": "Mount Carmel Health System Program",
"specialty": "Colon and Rectal Surgery",
"location": "Columbus, OH",
"latitude": 39.9721714,
"longitude": -82.8694464
},
{
"name": "Mountainstar HealthCare/Ogden Regional Medical Center/St Marks Hospital Program",
"specialty": "Colon and Rectal Surgery",
"location": "Salt Lake City, UT",
"latitude": 40.6712875,
"longitude": -111.7912764
},
{
"name": "New York Presbyterian Hospital (Cornell Campus) Program",
"specialty": "Colon and Rectal Surgery",
"location": "New York, NY",
"latitude": 40.7645239,
"longitude": -73.9624327
},
{
"name": "New York University School of Medicine Program",
"specialty": "Colon and Rectal Surgery",
"location": "New York, NY",
"latitude": 40.74727,
"longitude": -73.9800645
},
{
"name": "Northside Hospital Program",
"specialty": "Colon and Rectal Surgery",
"location": "Atlanta, GA",
"latitude": 33.8856615,
"longitude": -84.3699767
},
{
"name": "Ochsner Clinic Foundation Program",
"specialty": "Colon and Rectal Surgery",
"location": "New Orleans, LA",
"latitude": 29.9595011,
"longitude": -90.1612029
},
{
"name": "Ohio State University Hospital Program",
"specialty": "Colon and Rectal Surgery",
"location": "Columbus, OH",
"latitude": 39.9990626,
"longitude": -83.0173386
},
{
"name": "Oregon Health & Science University Program",
"specialty": "Colon and Rectal Surgery",
"location": "Portland, OR",
"latitude": 45.4874111,
"longitude": -122.6875541
},
{
"name": "Orlando Health Program",
"specialty": "Colon and Rectal Surgery",
"location": "Orlando, FL",
"latitude": 28.5085825,
"longitude": -81.3564411
},
{
"name": "Penn State Milton S Hershey Medical Center Program",
"specialty": "Colon and Rectal Surgery",
"location": "Hershey, PA",
"latitude": 40.2713328,
"longitude": -76.6297189
},
{
"name": "Rutgers Robert Wood Johnson Medical School Program",
"specialty": "Colon and Rectal Surgery",
"location": "Edison, NJ",
"latitude": 40.5757563,
"longitude": -74.3548452
},
{
"name": "Sidney Kimmel Medical College at Thomas Jefferson University/TJUH Program",
"specialty": "Colon and Rectal Surgery",
"location": "Philadelphia, PA",
"latitude": 39.9559288,
"longitude": -75.1574567
},
{
"name": "Southern Illinois University Program",
"specialty": "Colon and Rectal Surgery",
"location": "Springfield, IL",
"latitude": 39.8,
"longitude": -89.64
},
{
"name": "Spectrum Health/Michigan State University Program",
"specialty": "Colon and Rectal Surgery",
"location": "Grand Rapids, MI",
"latitude": 42.9616689,
"longitude": -85.6588999
},
{
"name": "St Francis Hospital and Medical Center Program",
"specialty": "Colon and Rectal Surgery",
"location": "Hartford, CT",
"latitude": 41.7721061,
"longitude": -72.7038047
},
{
"name": "St Joseph Mercy Ann Arbor Program",
"specialty": "Colon and Rectal Surgery",
"location": "Ann Arbor, MI",
"latitude": 42.2721528,
"longitude": -83.7754758
},
{
"name": "Stony Brook Medicine/Winthrop University Hospital Program",
"specialty": "Colon and Rectal Surgery",
"location": "Stony Brook, NY",
"latitude": 40.9123761,
"longitude": -73.1233889
},
{
"name": "Strong Memorial Hospital of the University of Rochester Program",
"specialty": "Colon and Rectal Surgery",
"location": "Rochester, NY",
"latitude": 43.1224766,
"longitude": -77.6242574
},
{
"name": "Swedish Medical Center Program",
"specialty": "Colon and Rectal Surgery",
"location": "Seattle, WA",
"latitude": 47.6015566,
"longitude": -122.3323351
},
{
"name": "Texas Health Presbyterian Dallas Program",
"specialty": "Colon and Rectal Surgery",
"location": "Dallas, TX",
"latitude": 32.8798071,
"longitude": -96.7547522
},
{
"name": "University at Buffalo Program",
"specialty": "Colon and Rectal Surgery",
"location": "Buffalo, NY",
"latitude": 42.9334868,
"longitude": -78.8439268
},
{
"name": "University of California(Irvine) Medical Center Program",
"specialty": "Colon and Rectal Surgery",
"location": "Orange, CA",
"latitude": 33.78659,
"longitude": -117.8750976
},
{
"name": "University of Chicago Program",
"specialty": "Colon and Rectal Surgery",
"location": "Chicago, IL",
"latitude": 41.7805099,
"longitude": -87.603826
},
{
"name": "University of Louisville School of Medicine Program",
"specialty": "Colon and Rectal Surgery",
"location": "Louisville, KY",
"latitude": 38.2556928,
"longitude": -85.751283
},
{
"name": "University of Massachusetts Program",
"specialty": "Colon and Rectal Surgery",
"location": "Worcester, MA",
"latitude": 42.279853,
"longitude": -71.7919027
},
{
"name": "University of Minnesota Program",
"specialty": "Colon and Rectal Surgery",
"location": "Minneapolis, MN",
"latitude": 44.9956414,
"longitude": -93.258095
},
{
"name": "University of Pennsylvania Health System Program",
"specialty": "Colon and Rectal Surgery",
"location": "Philadelphia, PA",
"latitude": 39.9583587,
"longitude": -75.1953934
},
{
"name": "University of South Florida Morsani Program",
"specialty": "Colon and Rectal Surgery",
"location": "Tampa, FL",
"latitude": 27.926156,
"longitude": -82.4563199
},
{
"name": "University of Southern California/LAC+USC Medical Center Program",
"specialty": "Colon and Rectal Surgery",
"location": "Los Angeles, CA",
"latitude": 34.0502898,
"longitude": -118.2117257
},
{
"name": "University of Tennessee College of Medicine Chattanooga Program",
"specialty": "Colon and Rectal Surgery",
"location": "Chattanooga, TN",
"latitude": 35.0496723,
"longitude": -85.2955242
},
{
"name": "University of Texas Health Science Center at Houston Program",
"specialty": "Colon and Rectal Surgery",
"location": "Houston, TX",
"latitude": 29.7050857,
"longitude": -95.4018087
},
{
"name": "University of Wisconsin Hospitals and Clinics Program",
"specialty": "Colon and Rectal Surgery",
"location": "Madison, WI",
"latitude": 43.0772547,
"longitude": -89.430773
},
{
"name": "Washington University/B-JH/SLCH Consortium Program",
"specialty": "Colon and Rectal Surgery",
"location": "St Louis, MO",
"latitude": 38.6212468,
"longitude": -90.2526163
},
{
"name": "Zucker School of Medicine at Hofstra/Northwell Program",
"specialty": "Colon and Rectal Surgery",
"location": "Great Neck, NY",
"latitude": 40.7851185,
"longitude": -73.7271909
},
{
"name": "Bay Area Corpus Christi Medical Center Program",
"specialty": "Dermatology",
"location": "McAllen, TX",
"latitude": 26.2892001,
"longitude": -98.2322355
},
{
"name": "Baylor College of Medicine Program",
"specialty": "Dermatology",
"location": "Houston, TX",
"latitude": 29.7050857,
"longitude": -95.4018087
},
{
"name": "Baylor University Medical Center Program",
"specialty": "Dermatology",
"location": "Dallas, TX",
"latitude": 32.7962048,
"longitude": -96.7694752
},
{
"name": "Beaumont Health (Farmington Hills) Program",
"specialty": "Dermatology",
"location": "Commerce Twp, MI",
"latitude": 42.5928553,
"longitude": -83.517682
},
{
"name": "Beaumont Health (Trenton) Program",
"specialty": "Dermatology",
"location": "Trenton, MI",
"latitude": 42.1352293,
"longitude": -83.2291862
},
{
"name": "Boston University Medical Center Program",
"specialty": "Dermatology",
"location": "Boston, MA",
"latitude": 42.3377967,
"longitude": -71.0705763
},
{
"name": "Broward Health Medical Center Program",
"specialty": "Dermatology",
"location": "Fort Lauderdale, FL",
"latitude": 26.0977657,
"longitude": -80.1261093
},
{
"name": "Brown University Program",
"specialty": "Dermatology",
"location": "Providence, RI",
"latitude": 41.816736,
"longitude": -71.4091563
},
{
"name": "Campbell University Program",
"specialty": "Dermatology",
"location": "Clinton, NC",
"latitude": 34.9979453,
"longitude": -78.3233325
},
{
"name": "Carilion Clinic-Virginia Tech Carilion School of Medicine Program",
"specialty": "Dermatology",
"location": "Roanoke, VA",
"latitude": 37.2724943,
"longitude": -79.9556424
},
{
"name": "Case Western Reserve University/University Hospitals Cleveland Medical Center Program",
"specialty": "Dermatology",
"location": "Cleveland, OH",
"latitude": 41.5091257,
"longitude": -81.6089873
},
{
"name": "Cleveland Clinic Foundation Program",
"specialty": "Dermatology",
"location": "Cleveland, OH",
"latitude": 41.5034177,
"longitude": -81.6204806
},
{
"name": "Cook County Health and Hospitals System Program",
"specialty": "Dermatology",
"location": "Chicago, IL",
"latitude": 41.8816606,
"longitude": -87.6926257
},
{
"name": "Cooper Medical School of Rowan University/Cooper University Hospital Program",
"specialty": "Dermatology",
"location": "Camden, NJ",
"latitude": 39.937645,
"longitude": -75.1136721
},
{
"name": "Duke University Hospital Program",
"specialty": "Dermatology",
"location": "Durham, NC",
"latitude": 36.0038131,
"longitude": -78.9387241
},
{
"name": "Eastern Virginia Medical School Program",
"specialty": "Dermatology",
"location": "Norfolk, VA",
"latitude": 36.8674231,
"longitude": -76.3145188
},
{
"name": "Emory University School of Medicine Program",
"specialty": "Dermatology",
"location": "Atlanta, GA",
"latitude": 33.7980995,
"longitude": -84.3259367
},
{
"name": "Florida State University College of Medicine Program",
"specialty": "Dermatology",
"location": "Tallahassee, FL",
"latitude": 30.4805441,
"longitude": -84.2173403
},
{
"name": "Geisinger Health System Program",
"specialty": "Dermatology",
"location": "Danville, PA",
"latitude": 40.9675163,
"longitude": -76.6044444
},
{
"name": "George Washington University School of Medicine Program",
"specialty": "Dermatology",
"location": "Washington, DC",
"latitude": 38.9042365,
"longitude": -77.0521289
},
{
"name": "Hackensack University Medical Center (Palisades) Program",
"specialty": "Dermatology",
"location": "North Bergen, NJ",
"latitude": 40.8053731,
"longitude": -74.0241367
},
{
"name": "HCA West Florida GME Consortium/Largo Medical Center Program",
"specialty": "Dermatology",
"location": "Largo, FL",
"latitude": 27.9180298,
"longitude": -82.7940297
},
{
"name": "HealthPartners Institute Program",
"specialty": "Dermatology",
"location": "St Louis Park, MN",
"latitude": 44.9465193,
"longitude": -93.3439291
},
{
"name": "Henry Ford Hospital/Wayne State University Program",
"specialty": "Dermatology",
"location": "Detroit, MI",
"latitude": 42.3664506,
"longitude": -83.0737195
},
{
"name": "Howard University Program",
"specialty": "Dermatology",
"location": "Washington, DC",
"latitude": 38.9178427,
"longitude": -77.0218255
},
{
"name": "Icahn School of Medicine at Mount Sinai Program",
"specialty": "Dermatology",
"location": "New York, NY",
"latitude": 40.7916407,
"longitude": -73.9447994
},
{
"name": "Indiana University School of Medicine Program",
"specialty": "Dermatology",
"location": "Indianapolis, IN",
"latitude": 39.7794767,
"longitude": -86.1700894
},
{
"name": "Jackson Memorial Hospital/Jackson Health System Program",
"specialty": "Dermatology",
"location": "Miami, FL",
"latitude": 25.7783254,
"longitude": -80.1990136
},
{
"name": "Johns Hopkins University Program",
"specialty": "Dermatology",
"location": "Baltimore, MD",
"latitude": 39.287866,
"longitude": -76.5921665
},
{
"name": "Kaiser Permanente Southern California (Los Angeles) Program",
"specialty": "Dermatology",
"location": "Los Angeles, CA",
"latitude": 34.1220545,
"longitude": -118.2935891
},
{
"name": "Kansas City University of Medicine & Biosciences-GME Consortium (KCU-GMEC)/Tri-County Program",
"specialty": "Dermatology",
"location": "Cuyahoga Falls, OH",
"latitude": 41.1362185,
"longitude": -81.4828198
},
{
"name": "Kansas City University of Medicine & Biosciences-GME Consortium (KCU-GME Consortium) Phoenix Program",
"specialty": "Dermatology",
"location": "Mesa, AZ",
"latitude": 33.3951613,
"longitude": -111.7018452
},
{
"name": "Kansas City University of Medicine & Biosciences-GME Consortium (KCU-GME Consortium)/ADCS-Orlando Program",
"specialty": "Dermatology",
"location": "Maitland, FL",
"latitude": 28.6366753,
"longitude": -81.3674389
},
{
"name": "Larkin Community Hospital Program",
"specialty": "Dermatology",
"location": "South Miami, FL",
"latitude": 25.6993807,
"longitude": -80.2934522
},
{
"name": "Lehigh Valley Health Network Program",
"specialty": "Dermatology",
"location": "Allentown, PA",
"latitude": 40.5719198,
"longitude": -75.4927278
},
{
"name": "Loma Linda University Health Education Consortium Program",
"specialty": "Dermatology",
"location": "Loma Linda, CA",
"latitude": 34.0484387,
"longitude": -117.2499749
},
{
"name": "Los Angeles County-Harbor-UCLA Medical Center Program",
"specialty": "Dermatology",
"location": "Torrance, CA",
"latitude": 33.83,
"longitude": -118.33
},
{
"name": "Louisiana State University Program",
"specialty": "Dermatology",
"location": "New Orleans, LA",
"latitude": 29.9595769,
"longitude": -90.0770127
},
{
"name": "Loyola University Medical Center Program",
"specialty": "Dermatology",
"location": "Maywood, IL",
"latitude": 41.8791979,
"longitude": -87.8431155
},
{
"name": "Marshfield Clinic Program",
"specialty": "Dermatology",
"location": "Marshfield, WI",
"latitude": 44.6688524,
"longitude": -90.1717987
},
{
"name": "Mary Hitchcock Memorial Hospital/Dartmouth-Hitchcock Program",
"specialty": "Dermatology",
"location": "Lebanon, NH",
"latitude": 43.6760215,
"longitude": -72.2730994
},
{
"name": "Massachusetts General Hospital/Beth Israel Deaconess Medical Center/Brigham and Women's Hosp Program",
"specialty": "Dermatology",
"location": "Boston, MA",
"latitude": 42.3652917,
"longitude": -71.0646337
},
{
"name": "Mayo Clinic College of Medicine and Science (Arizona) Program",
"specialty": "Dermatology",
"location": "Scottsdale, AZ",
"latitude": 33.5910441,
"longitude": -111.7972384
},
{
"name": "Mayo Clinic College of Medicine and Science (Jacksonville) Program",
"specialty": "Dermatology",
"location": "Jacksonville, FL",
"latitude": 30.2606613,
"longitude": -81.460856
},
{
"name": "Mayo Clinic College of Medicine and Science (Rochester) Program",
"specialty": "Dermatology",
"location": "Rochester, MN",
"latitude": 44.0557303,
"longitude": -92.5253639
},
{
"name": "McGaw Medical Center of Northwestern University Program",
"specialty": "Dermatology",
"location": "Chicago, IL",
"latitude": 41.8925085,
"longitude": -87.6161696
},
{
"name": "Medical City Weatherford Program",
"specialty": "Dermatology",
"location": "Weatherford, TX",
"latitude": 32.7522671,
"longitude": -97.7905758
},
{
"name": "Medical College of Georgia Program",
"specialty": "Dermatology",
"location": "Augusta, GA",
"latitude": 33.4775837,
"longitude": -82.013465
},
{
"name": "Medical College of Wisconsin Affiliated Hospitals Program",
"specialty": "Dermatology",
"location": "Milwaukee, WI",
"latitude": 43.0513426,
"longitude": -88.0411993
},
{
"name": "Medical University of South Carolina Program",
"specialty": "Dermatology",
"location": "Charleston, SC",
"latitude": 32.785895,
"longitude": -79.9479496
},
{
"name": "MedStar Heath/Washington Hospital Center Program",
"specialty": "Dermatology",
"location": "Washington, DC",
"latitude": 38.9339046,
"longitude": -77.030539
},
{
"name": "MetroHealth Medical Center/Case Western Reserve University Program",
"specialty": "Dermatology",
"location": "Cleveland, OH",
"latitude": 41.4513221,
"longitude": -81.7021049
},
{
"name": "Montefiore Medical Center/Albert Einstein College of Medicine Program",
"specialty": "Dermatology",
"location": "Bronx, NY",
"latitude": 40.8723987,
"longitude": -73.8713099
},
{
"name": "National Capital Consortium Program",
"specialty": "Dermatology",
"location": "Bethesda, MD",
"latitude": 39.0083306,
"longitude": -77.096376
},
{
"name": "Naval Medical Center (San Diego) Program",
"specialty": "Dermatology",
"location": "San Diego, CA",
"latitude": 32.7240705,
"longitude": -117.1463285
},
{
"name": "New York Medical College (Metropolitan) Program",
"specialty": "Dermatology",
"location": "New York City, NY",
"latitude": 40.7916407,
"longitude": -73.9447994
},
{
"name": "New York Presbyterian Hospital (Columbia Campus) Program",
"specialty": "Dermatology",
"location": "New York, NY",
"latitude": 40.8409822,
"longitude": -73.9447994
},
{
"name": "New York Presbyterian Hospital (Cornell Campus) Program",
"specialty": "Dermatology",
"location": "New York, NY",
"latitude": 40.7700703,
"longitude": -73.9580246
},
{
"name": "New York University School of Medicine Program",
"specialty": "Dermatology",
"location": "New York, NY",
"latitude": 40.74727,
"longitude": -73.9800645
},
{
"name": "Ohio State University Hospital Program",
"specialty": "Dermatology",
"location": "Gahanna, OH",
"latitude": 40.0388765,
"longitude": -82.8748301
},
{
"name": "OPTI West (Newport Beach) Program",
"specialty": "Dermatology",
"location": "Newport Beach, CA",
"latitude": 33.6301328,
"longitude": -117.8721676
},
{
"name": "Orange Park Medical Center Program",
"specialty": "Dermatology",
"location": "Orange Park, FL",
"latitude": 30.1660736,
"longitude": -81.706484
},
{
"name": "Oregon Health & Science University Program",
"specialty": "Dermatology",
"location": "Portland, OR",
"latitude": 45.4874111,
"longitude": -122.6875541
},
{
"name": "Penn State Milton S Hershey Medical Center Program",
"specialty": "Dermatology",
"location": "Hershey, PA",
"latitude": 40.2713328,
"longitude": -76.6297189
},
{
"name": "Riverside Methodist Hospitals (OhioHealth) Program",
"specialty": "Dermatology",
"location": "Columbus, OH",
"latitude": 40.0480476,
"longitude": -83.025396
},
{
"name": "Roger Williams Medical Center Program",
"specialty": "Dermatology",
"location": "Providence, RI",
"latitude": 41.8380136,
"longitude": -71.4358733
},
{
"name": "Rush University Medical Center Program",
"specialty": "Dermatology",
"location": "Chicago, IL",
"latitude": 41.8816606,
"longitude": -87.6926257
},
{
"name": "Rutgers Robert Wood Johnson Medical School Program",
"specialty": "Dermatology",
"location": "Somerset, NJ",
"latitude": 40.497604,
"longitude": -74.4884868
},
{
"name": "Samaritan Health Services - Corvallis Program",
"specialty": "Dermatology",
"location": "Salem, OR",
"latitude": 44.9046074,
"longitude": -123.0826335
},
{
"name": "San Antonio Uniformed Services Health Education Consortium Program",
"specialty": "Dermatology",
"location": "JBSA-Lackland, TX",
"latitude": 29.3921564,
"longitude": -98.6174682
},
{
"name": "Sidney Kimmel Medical College at Thomas Jefferson University/TJUH Program",
"specialty": "Dermatology",
"location": "Philadelphia, PA",
"latitude": 39.9559288,
"longitude": -75.1574567
},
{
"name": "Southern Illinois University Program",
"specialty": "Dermatology",
"location": "Springfield, IL",
"latitude": 39.8,
"longitude": -89.64
},
{
"name": "St John's Episcopal Hospital-South Shore Program",
"specialty": "Dermatology",
"location": "Far Rockaway, NY",
"latitude": 40.6024346,
"longitude": -73.762495
},
{
"name": "St Joseph Mercy Livingston Program",
"specialty": "Dermatology",
"location": "Ann Arbor, MI",
"latitude": 42.2721528,
"longitude": -83.7754758
},
{
"name": "St Louis University School of Medicine Program",
"specialty": "Dermatology",
"location": "St Louis, MO",
"latitude": 38.6160491,
"longitude": -90.2291565
},
{
"name": "Stanford Health Care-Sponsored Stanford University Program",
"specialty": "Dermatology",
"location": "Redwood City, CA",
"latitude": 37.4852152,
"longitude": -122.2363548
},
{
"name": "Still OPTI Program",
"specialty": "Dermatology",
"location": "Kirksville, MO",
"latitude": 40.1947539,
"longitude": -92.5832496
},
{
"name": "Stony Brook Medicine/University Hospital Program",
"specialty": "Dermatology",
"location": "Stony Brook, NY",
"latitude": 40.8978388,
"longitude": -73.1054544
},
{
"name": "SUNY Health Science Center at Brooklyn Program",
"specialty": "Dermatology",
"location": "Brooklyn, NY",
"latitude": 40.6515882,
"longitude": -73.9330429
},
{
"name": "Temple University Hospital Program",
"specialty": "Dermatology",
"location": "Philadelphia, PA",
"latitude": 40.012545,
"longitude": -75.1487007
},
{
"name": "Texas A&M College of Medicine-Scott and White Medical Center (Temple) Program",
"specialty": "Dermatology",
"location": "Temple, TX",
"latitude": 31.082147,
"longitude": -97.2437105
},
{
"name": "Texas Tech University Health Sciences Center at Lubbock Program",
"specialty": "Dermatology",
"location": "Lubbock, TX",
"latitude": 33.5869836,
"longitude": -101.899153
},
{
"name": "Tufts Medical Center Program",
"specialty": "Dermatology",
"location": "Boston, MA",
"latitude": 42.3514653,
"longitude": -71.0601767
},
{
"name": "Tulane University Program",
"specialty": "Dermatology",
"location": "New Orleans, LA",
"latitude": 29.9595769,
"longitude": -90.0770127
},
{
"name": "UCLA David Geffen School of Medicine/UCLA Medical Center Program",
"specialty": "Dermatology",
"location": "Los Angeles, CA",
"latitude": 34.070264,
"longitude": -118.4440562
},
{
"name": "University of Alabama Medical Center Program",
"specialty": "Dermatology",
"location": "Birmingham, AL",
"latitude": 33.5075555,
"longitude": -86.8093239
},
{
"name": "University of Arizona College of Medicine-Tucson Program",
"specialty": "Dermatology",
"location": "Tucson, AZ",
"latitude": 32.2402988,
"longitude": -110.9454478
},
{
"name": "University of Arkansas for Medical Sciences Program",
"specialty": "Dermatology",
"location": "Little Rock, AR",
"latitude": 34.7486563,
"longitude": -92.3542193
},
{
"name": "University of California (Irvine) Program",
"specialty": "Dermatology",
"location": "Irvine, CA",
"latitude": 33.6471239,
"longitude": -117.8421325
},
{
"name": "University of California (San Diego) Medical Center Program",
"specialty": "Dermatology",
"location": "La Jolla, CA",
"latitude": 32.8843552,
"longitude": -117.2338066
},
{
"name": "University of California (San Francisco) Program",
"specialty": "Dermatology",
"location": "San Francisco, CA",
"latitude": 37.7877522,
"longitude": -122.4382307
},
{
"name": "University of California Davis Health Program",
"specialty": "Dermatology",
"location": "Sacramento, CA",
"latitude": 38.5800184,
"longitude": -121.4627576
},
{
"name": "University of Chicago Program",
"specialty": "Dermatology",
"location": "Chicago, IL",
"latitude": 41.7805099,
"longitude": -87.603826
},
{
"name": "University of Cincinnati Medical Center/College of Medicine Program",
"specialty": "Dermatology",
"location": "Cincinnati, OH",
"latitude": 39.1367664,
"longitude": -84.5022988
},
{
"name": "University of Colorado Program",
"specialty": "Dermatology",
"location": "Aurora, CO",
"latitude": 39.7503186,
"longitude": -104.8367063
},
{
"name": "University of Connecticut Program",
"specialty": "Dermatology",
"location": "Farmington, CT",
"latitude": 41.7324663,
"longitude": -72.8072342
},
{
"name": "University of Florida Program",
"specialty": "Dermatology",
"location": "Gainesville, FL",
"latitude": 29.6389921,
"longitude": -82.3430269
},
{
"name": "University of Illinois College of Medicine at Chicago Program",
"specialty": "Dermatology",
"location": "Chicago, IL",
"latitude": 41.8816606,
"longitude": -87.6926257
},
{
"name": "University of Iowa Hospitals and Clinics Program",
"specialty": "Dermatology",
"location": "Iowa City, IA",
"latitude": 41.659363,
"longitude": -91.5487099
},
{
"name": "University of Kansas School of Medicine Program",
"specialty": "Dermatology",
"location": "Kansas City, KS",
"latitude": 39.06,
"longitude": -94.61
},
{
"name": "University of Louisville School of Medicine Program",
"specialty": "Dermatology",
"location": "Louisville, KY",
"latitude": 38.3018831,
"longitude": -85.5766466
},
{
"name": "University of Maryland Program",
"specialty": "Dermatology",
"location": "Baltimore, MD",
"latitude": 39.2963369,
"longitude": -76.6210539
},
{
"name": "University of Massachusetts Program",
"specialty": "Dermatology",
"location": "Worcester, MA",
"latitude": 42.279853,
"longitude": -71.7919027
},
{
"name": "University of Michigan Health System Program",
"specialty": "Dermatology",
"location": "Ann Arbor, MI",
"latitude": 42.3053253,
"longitude": -83.6694169
},
{
"name": "University of Minnesota Program",
"specialty": "Dermatology",
"location": "Minneapolis, MN",
"latitude": 44.9741561,
"longitude": -93.2342
},
{
"name": "University of Mississippi School of Medicine Program",
"specialty": "Dermatology",
"location": "Jackson, MS",
"latitude": 32.3361632,
"longitude": -90.1565209
},
{
"name": "University of Missouri-Columbia Program",
"specialty": "Dermatology",
"location": "Columbia, MO",
"latitude": 38.9385874,
"longitude": -92.3280165
},
{
"name": "University of New Mexico School of Medicine Program",
"specialty": "Dermatology",
"location": "Albuquerque, NM",
"latitude": 35.0848894,
"longitude": -106.6468148
},
{
"name": "University of North Carolina Hospitals Program",
"specialty": "Dermatology",
"location": "Chapel Hill, NC",
"latitude": 35.9131996,
"longitude": -79.0558445
},
{
"name": "University of Oklahoma Health Sciences Center Program",
"specialty": "Dermatology",
"location": "Oklahoma City, OK",
"latitude": 35.4718556,
"longitude": -97.5057737
},
{
"name": "University of Pennsylvania Health System Program",
"specialty": "Dermatology",
"location": "Philadelphia, PA",
"latitude": 39.9583587,
"longitude": -75.1953934
},
{
"name": "University of Puerto Rico Program",
"specialty": "Dermatology",
"location": "San Juan, PR",
"latitude": 18.466224,
"longitude": -66.1057244
},
{
"name": "University of Rochester Program",
"specialty": "Dermatology",
"location": "Rochester, NY",
"latitude": 43.1224766,
"longitude": -77.6242574
},
{
"name": "University of South Florida Morsani Program",
"specialty": "Dermatology",
"location": "Tampa, FL",
"latitude": 28.0563834,
"longitude": -82.4427769
},
{
"name": "University of Southern California/LAC+USC Medical Center Program",
"specialty": "Dermatology",
"location": "Los Angeles, CA",
"latitude": 34.0502898,
"longitude": -118.2117257
},
{
"name": "University of Tennessee Program",
"specialty": "Dermatology",
"location": "Memphis, TN",
"latitude": 35.1416558,
"longitude": -90.0341115
},
{
"name": "University of Texas at Austin Dell Medical School Program",
"specialty": "Dermatology",
"location": "Austin, TX",
"latitude": 30.2729209,
"longitude": -97.7443863
},
{
"name": "University of Texas Health Science Center at Houston Program",
"specialty": "Dermatology",
"location": "Houston, TX",
"latitude": 29.7050857,
"longitude": -95.4018087
},
{
"name": "University of Texas Health Science Center San Antonio Joe and Teresa Lozano Long School of Medicine Program",
"specialty": "Dermatology",
"location": "San Antonio, TX",
"latitude": 29.5060908,
"longitude": -98.577596
},
{
"name": "University of Texas Medical Branch Hospitals Program",
"specialty": "Dermatology",
"location": "Galveston, TX",
"latitude": 29.3106102,
"longitude": -94.7772493
},
{
"name": "University of Texas Southwestern Medical School Program",
"specialty": "Dermatology",
"location": "Dallas, TX",
"latitude": 32.8113367,
"longitude": -96.8397899
},
{
"name": "University of Utah Program",
"specialty": "Dermatology",
"location": "Salt Lake City, UT",
"latitude": 40.7704811,
"longitude": -111.8367368
},
{
"name": "University of Vermont Medical Center Program",
"specialty": "Dermatology",
"location": "Burlington, VT",
"latitude": 44.4758442,
"longitude": -73.212121
},
{
"name": "University of Virginia Medical Center Program",
"specialty": "Dermatology",
"location": "Charlottesville, VA",
"latitude": 38.031942,
"longitude": -78.498585
},
{
"name": "University of Washington Program",
"specialty": "Dermatology",
"location": "Seattle, WA",
"latitude": 47.6508882,
"longitude": -122.3084023
},
{
"name": "University of Wisconsin Hospitals and Clinics Program",
"specialty": "Dermatology",
"location": "Madison, WI",
"latitude": 43.0592056,
"longitude": -89.4008958
},
{
"name": "UPMC Medical Education Program",
"specialty": "Dermatology",
"location": "Pittsburgh, PA",
"latitude": 40.4379259,
"longitude": -79.9556424
},
{
"name": "Vanderbilt University Medical Center Program",
"specialty": "Dermatology",
"location": "Nashville, TN",
"latitude": 36.1003494,
"longitude": -86.7718017
},
{
"name": "Virginia Commonwealth University Health System Program",
"specialty": "Dermatology",
"location": "Richmond, VA",
"latitude": 37.5433009,
"longitude": -77.4293184
},
{
"name": "Wake Forest University School of Medicine Program",
"specialty": "Dermatology",
"location": "Winston-Salem, NC",
"latitude": 36.0906568,
"longitude": -80.2715385
},
{
"name": "Washington University/B-JH/SLCH Consortium Program",
"specialty": "Dermatology",
"location": "St Louis, MO",
"latitude": 38.6212468,
"longitude": -90.2526163
},
{
"name": "Wayne State University School of Medicine Program",
"specialty": "Dermatology",
"location": "Detroit, MI",
"latitude": 42.348495,
"longitude": -83.0602998
},
{
"name": "West Virginia University Program",
"specialty": "Dermatology",
"location": "Morgantown, WV",
"latitude": 39.654181,
"longitude": -79.9594886
},
{
"name": "Wright State University Program",
"specialty": "Dermatology",
"location": "Dayton, OH",
"latitude": 39.7587998,
"longitude": -84.1787904
},
{
"name": "Yale-New Haven Medical Center Program",
"specialty": "Dermatology",
"location": "New Haven, CT",
"latitude": 41.3064267,
"longitude": -72.9310217
},
{
"name": "Zucker School of Medicine at Hofstra/Northwell Program",
"specialty": "Dermatology",
"location": "Lake Success, NY",
"latitude": 40.7572158,
"longitude": -73.6962948
},
{
"name": "Adena Regional Medical Center Program",
"specialty": "Emergency Medicine",
"location": "Chillicothe, OH",
"latitude": 39.3331197,
"longitude": -82.9824019
},
{
"name": "Advocate Health Care (Advocate Christ Medical Center) Program",
"specialty": "Emergency Medicine",
"location": "Oak Lawn, IL",
"latitude": 41.719978,
"longitude": -87.7479528
},
{
"name": "Akron General Medical Center/NEOMED Program",
"specialty": "Emergency Medicine",
"location": "Akron, OH",
"latitude": 41.068379,
"longitude": -81.54593
},
{
"name": "Alameda Health System-Highland Hospital Program",
"specialty": "Emergency Medicine",
"location": "Oakland, CA",
"latitude": 37.8015517,
"longitude": -122.2143323
},
{
"name": "Albany Medical Center Program",
"specialty": "Emergency Medicine",
"location": "Albany, NY",
"latitude": 42.6547387,
"longitude": -73.7889689
},
{
"name": "Albert Einstein Healthcare Network Program",
"specialty": "Emergency Medicine",
"location": "Philadelphia, PA",
"latitude": 40.0397682,
"longitude": -75.145782
},
{
"name": "Allegheny Health Network Medical Education Consortium (AGH) Program",
"specialty": "Emergency Medicine",
"location": "Pittsburgh, PA",
"latitude": 40.4828051,
"longitude": -80.0367259
},
{
"name": "Allegheny Health Network Medical Education Consortium Program",
"specialty": "Emergency Medicine",
"location": "Erie, PA",
"latitude": 42.1103844,
"longitude": -80.0953942
},
{
"name": "Arnot Ogden Medical Center Program",
"specialty": "Emergency Medicine",
"location": "Elmira, NY",
"latitude": 42.0817502,
"longitude": -76.854799
},
{
"name": "Arrowhead Regional Medical Center Program",
"specialty": "Emergency Medicine",
"location": "Colton, CA",
"latitude": 34.0739016,
"longitude": -117.3136547
},
{
"name": "Ascension Macomb-Oakland Hospital Program",
"specialty": "Emergency Medicine",
"location": "Warren, MI",
"latitude": 42.5190114,
"longitude": -83.0092803
},
{
"name": "Ascension St John Hospital Program",
"specialty": "Emergency Medicine",
"location": "Detroit, MI",
"latitude": 42.4192083,
"longitude": -82.8963604
},
{
"name": "Atlantic Health (Morristown) Program",
"specialty": "Emergency Medicine",
"location": "Morristown, NJ",
"latitude": 40.7793504,
"longitude": -74.511172
},
{
"name": "Aventura Hospital and Medical Center Program",
"specialty": "Emergency Medicine",
"location": "Aventura, FL",
"latitude": 25.9564812,
"longitude": -80.1392121
},
{
"name": "Baylor College of Medicine Program",
"specialty": "Emergency Medicine",
"location": "Houston, TX",
"latitude": 29.7050857,
"longitude": -95.4018087
},
{
"name": "Beaumont Health (Farmington Hills) Program",
"specialty": "Emergency Medicine",
"location": "Farmington Hills, MI",
"latitude": 42.4658351,
"longitude": -83.3468784
},
{
"name": "Beaumont Health (Royal Oak) Program",
"specialty": "Emergency Medicine",
"location": "Royal Oak, MI",
"latitude": 42.5183235,
"longitude": -83.15954
},
{
"name": "Beth Israel Deaconess Medical Center/Harvard Medical School Program",
"specialty": "Emergency Medicine",
"location": "Boston, MA",
"latitude": 42.3476181,
"longitude": -71.1002881
},
{
"name": "Boston University Medical Center Program",
"specialty": "Emergency Medicine",
"location": "Boston, MA",
"latitude": 42.3377967,
"longitude": -71.0705763
},
{
"name": "Brookdale University Hospital and Medical Center Program",
"specialty": "Emergency Medicine",
"location": "Brooklyn, NY",
"latitude": 40.6639181,
"longitude": -73.9154069
},
{
"name": "Brooklyn Hospital Center Program",
"specialty": "Emergency Medicine",
"location": "Brooklyn, NY",
"latitude": 40.6986772,
"longitude": -73.9859414
},
{
"name": "Brown University Program",
"specialty": "Emergency Medicine",
"location": "Providence, RI",
"latitude": 41.816736,
"longitude": -71.4091563
},
{
"name": "Campbell University/Cape Fear Valley Medical Center Program",
"specialty": "Emergency Medicine",
"location": "Fayetteville, NC",
"latitude": 35.0285822,
"longitude": -78.9627624
},
{
"name": "Campbell University/Southeastern Regional Medical Center Program",
"specialty": "Emergency Medicine",
"location": "Lumberton, NC",
"latitude": 34.6216196,
"longitude": -79.0059754
},
{
"name": "Carilion Clinic-Virginia Tech Carilion School of Medicine Program",
"specialty": "Emergency Medicine",
"location": "Roanoke, VA",
"latitude": 37.2724943,
"longitude": -79.9556424
},
{
"name": "Carolinas Medical Center Program",
"specialty": "Emergency Medicine",
"location": "Charlotte, NC",
"latitude": 35.2219554,
"longitude": -80.8328724
},
{
"name": "Case Western Reserve University (MetroHealth) Program",
"specialty": "Emergency Medicine",
"location": "Cleveland, OH",
"latitude": 41.4513221,
"longitude": -81.7021049
},
{
"name": "Case Western Reserve University/University Hospitals Cleveland Medical Center Program",
"specialty": "Emergency Medicine",
"location": "Cleveland, OH",
"latitude": 41.5067596,
"longitude": -81.6051444
},
{
"name": "Central Michigan University College of Medicine Program",
"specialty": "Emergency Medicine",
"location": "Saginaw, MI",
"latitude": 43.4304646,
"longitude": -83.9638426
},
{
"name": "Charleston Area Medical Center Program",
"specialty": "Emergency Medicine",
"location": "Charleston, WV",
"latitude": 38.279687,
"longitude": -81.614468
},
{
"name": "Christiana Care Health Services Program",
"specialty": "Emergency Medicine",
"location": "Newark, DE",
"latitude": 39.6902175,
"longitude": -75.6753548
},
{
"name": "CHRISTUS Health/Texas A&M College of Medicine/Spohn Hospital Program",
"specialty": "Emergency Medicine",
"location": "Corpus Christi, TX",
"latitude": 27.767874,
"longitude": -97.4002872
},
{
"name": "Conemaugh Memorial Medical Center Program",
"specialty": "Emergency Medicine",
"location": "Johnstown, PA",
"latitude": 40.3267407,
"longitude": -78.9219698
},
{
"name": "Cook County Health and Hospitals System Program",
"specialty": "Emergency Medicine",
"location": "Chicago, IL",
"latitude": 41.8816606,
"longitude": -87.6926257
},
{
"name": "Cooper Medical School of Rowan University/Cooper University Hospital Program",
"specialty": "Emergency Medicine",
"location": "Camden, NJ",
"latitude": 39.937645,
"longitude": -75.1136721
},
{
"name": "Creighton University School of Medicine/Maricopa Medical Center (Phoenix) Program",
"specialty": "Emergency Medicine",
"location": "Phoenix, AZ",
"latitude": 33.4660406,
"longitude": -112.0118669
},
{
"name": "Crozer-Chester Medical Center Program",
"specialty": "Emergency Medicine",
"location": "Upland, PA",
"latitude": 39.8526124,
"longitude": -75.3826921
},
{
"name": "Darnall Army Medical Center Program",
"specialty": "Emergency Medicine",
"location": "Fort Hood, TX",
"latitude": 31.1524219,
"longitude": -97.7960118
},
{
"name": "Denver Health Medical Center Program",
"specialty": "Emergency Medicine",
"location": "Denver, CO",
"latitude": 39.7380371,
"longitude": -105.0265195
},
{
"name": "Desert Regional Medical Center Program",
"specialty": "Emergency Medicine",
"location": "Palm Springs, CA",
"latitude": 33.8260078,
"longitude": -116.5440743
},
{
"name": "Detroit Medical Center/Wayne State University (Detroit Receiving Hospital) Program",
"specialty": "Emergency Medicine",
"location": "Detroit, MI",
"latitude": 42.348495,
"longitude": -83.0602998
},
{
"name": "Detroit Medical Center/Wayne State University (Sinai Grace) Program",
"specialty": "Emergency Medicine",
"location": "Detroit, MI",
"latitude": 42.4224755,
"longitude": -83.1916937
},
{
"name": "Doctors Hospital/OhioHealth Program",
"specialty": "Emergency Medicine",
"location": "Columbus, OH",
"latitude": 39.9571056,
"longitude": -83.1273705
},
{
"name": "Drexel University College of Medicine/Hahnemann University Hospital Program",
"specialty": "Emergency Medicine",
"location": "Philadelphia, PA",
"latitude": 39.9556241,
"longitude": -75.1647529
},
{
"name": "Duke University Hospital Program",
"specialty": "Emergency Medicine",
"location": "Durham, NC",
"latitude": 36.0038131,
"longitude": -78.9387241
},
{
"name": "Eastern Virginia Medical School Program",
"specialty": "Emergency Medicine",
"location": "Norfolk, VA",
"latitude": 36.8674231,
"longitude": -76.3145188
},
{
"name": "Emory University School of Medicine Program",
"specialty": "Emergency Medicine",
"location": "Atlanta, GA",
"latitude": 33.755711,
"longitude": -84.3883717
},
{
"name": "Florida Atlantic University Charles E. Schmidt College of Medicine Program",
"specialty": "Emergency Medicine",
"location": "Boynton Beach, FL",
"latitude": 26.5254562,
"longitude": -80.0590804
},
{
"name": "Florida Hospital Medical Center Program",
"specialty": "Emergency Medicine",
"location": "Orlando, FL",
"latitude": 28.4750405,
"longitude": -81.2849169
},
{
"name": "Florida State University College of Medicine Program",
"specialty": "Emergency Medicine",
"location": "Sarasota, FL",
"latitude": 27.3086034,
"longitude": -82.5239953
},
{
"name": "Geisinger Health System Program",
"specialty": "Emergency Medicine",
"location": "Danville, PA",
"latitude": 40.9675163,
"longitude": -76.6044444
},
{
"name": "Genesys Regional Medical Center Program",
"specialty": "Emergency Medicine",
"location": "Grand Blanc, MI",
"latitude": 42.9275277,
"longitude": -83.6299518
},
{
"name": "George Washington University Program",
"specialty": "Emergency Medicine",
"location": "Washington, DC",
"latitude": 38.9042365,
"longitude": -77.0521289
},
{
"name": "Good Samaritan Hospital Medical Center Program",
"specialty": "Emergency Medicine",
"location": "West Islip, NY",
"latitude": 40.7111586,
"longitude": -73.3060197
},
{
"name": "Grand Strand Regional Medical Center Program",
"specialty": "Emergency Medicine",
"location": "Myrtle Beach, SC",
"latitude": 33.7600115,
"longitude": -78.8099472
},
{
"name": "Greenville Health System/University of South Carolina Program",
"specialty": "Emergency Medicine",
"location": "Greenville, SC",
"latitude": 34.7671945,
"longitude": -82.3777335
},
{
"name": "Hackensack University Medical Center Program",
"specialty": "Emergency Medicine",
"location": "Hackensack, NJ",
"latitude": 40.8876273,
"longitude": -74.0476378
},
{
"name": "HCA West Florida GME Consortium/Brandon Regional Hospital Program",
"specialty": "Emergency Medicine",
"location": "Brandon, FL",
"latitude": 27.9082595,
"longitude": -82.2909146
},
{
"name": "HCA West Florida GME Consortium/Oak Hill Hospital Program",
"specialty": "Emergency Medicine",
"location": "Brooksville, FL",
"latitude": 28.5552719,
"longitude": -82.3878709
},
{
"name": "HealthPartners Institute/Regions Hospital Program",
"specialty": "Emergency Medicine",
"location": "St Paul, MN",
"latitude": 44.9513188,
"longitude": -93.0901841
},
{
"name": "Hennepin Healthcare Program",
"specialty": "Emergency Medicine",
"location": "Minneapolis, MN",
"latitude": 44.9758391,
"longitude": -93.2571034
},
{
"name": "Henry Ford Allegiance Health Program",
"specialty": "Emergency Medicine",
"location": "Jackson, MI",
"latitude": 42.245869,
"longitude": -84.4013462
},
{
"name": "Henry Ford Hospital/Wayne State University Program",
"specialty": "Emergency Medicine",
"location": "Detroit, MI",
"latitude": 42.3664506,
"longitude": -83.0737195
},
{
"name": "Henry Ford Macomb Hospital Program",
"specialty": "Emergency Medicine",
"location": "Clinton Township, MI",
"latitude": 42.5976588,
"longitude": -82.9394002
},