[
{
"id": 1,
"name": "Allergy and Immunology",
"specialty": "-",
"location": "-",
"latitude": "-",
"longitude": "-",
"parent_id": 0
},
{
"id": 2,
"name": "Anesthesiology",
"specialty": "-",
"location": "-",
"latitude": "-",
"longitude": "-",
"parent_id": 0
},
{
"id": 3,
"name": "Child Neurology",
"specialty": "-",
"location": "-",
"latitude": "-",
"longitude": "-",
"parent_id": 0
},
{
"id": 4,
"name": "Colon and Rectal Surgery",
"specialty": "-",
"location": "-",
"latitude": "-",
"longitude": "-",
"parent_id": 0
},
{
"id": 5,
"name": "Dermatology",
"specialty": "-",
"location": "-",
"latitude": "-",
"longitude": "-",
"parent_id": 0
},
{
"id": 6,
"name": "Emergency Medicine",
"specialty": "-",
"location": "-",
"latitude": "-",
"longitude": "-",
"parent_id": 0
},
{
"id": 7,
"name": "Family Medicine",
"specialty": "-",
"location": "-",
"latitude": "-",
"longitude": "-",
"parent_id": 0
},
{
"id": 8,
"name": "Internal Medicine",
"specialty": "-",
"location": "-",
"latitude": "-",
"longitude": "-",
"parent_id": 0
},
{
"id": 9,
"name": "Internal Medicine/Pediatrics",
"specialty": "-",
"location": "-",
"latitude": "-",
"longitude": "-",
"parent_id": 0
},
{
"id": 11,
"name": "Medical Genetics and Genomics",
"specialty": "-",
"location": "-",
"latitude": "-",
"longitude": "-",
"parent_id": 0
},
{
"id": 12,
"name": "Neurological Surgery",
"specialty": "-",
"location": "-",
"latitude": "-",
"longitude": "-",
"parent_id": 0
},
{
"id": 13,
"name": "Neurology",
"specialty": "-",
"location": "-",
"latitude": "-",
"longitude": "-",
"parent_id": 0
},
{
"id": 14,
"name": "Nuclear Medicine",
"specialty": "-",
"location": "-",
"latitude": "-",
"longitude": "-",
"parent_id": 0
},
{
"id": 15,
"name": "Obstetrics and Gynecology",
"specialty": "-",
"location": "-",
"latitude": "-",
"longitude": "-",
"parent_id": 0
},
{
"id": 16,
"name": "Ophthalmology",
"specialty": "-",
"location": "-",
"latitude": "-",
"longitude": "-",
"parent_id": 0
},
{
"id": 17,
"name": "Orthopaedic Surgery",
"specialty": "-",
"location": "-",
"latitude": "-",
"longitude": "-",
"parent_id": 0
},
{
"id": 18,
"name": "Osteopathic Neuromusculoskeletal Medicine",
"specialty": "-",
"location": "-",
"latitude": "-",
"longitude": "-",
"parent_id": 0
},
{
"id": 19,
"name": "Otolaryngology",
"specialty": "-",
"location": "-",
"latitude": "-",
"longitude": "-",
"parent_id": 0
},
{
"id": 20,
"name": "Pathology-Anatomic and Clinical",
"specialty": "-",
"location": "-",
"latitude": "-",
"longitude": "-",
"parent_id": 0
},
{
"id": 21,
"name": "Pediatrics",
"specialty": "-",
"location": "-",
"latitude": "-",
"longitude": "-",
"parent_id": 0
},
{
"id": 22,
"name": "Physical Medicine and Rehabilitation",
"specialty": "-",
"location": "-",
"latitude": "-",
"longitude": "-",
"parent_id": 0
},
{
"id": 23,
"name": "Plastic Surgery",
"specialty": "-",
"location": "-",
"latitude": "-",
"longitude": "-",
"parent_id": 0
},
{
"id": 24,
"name": "Plastic Surgery - Integrated",
"specialty": "-",
"location": "-",
"latitude": "-",
"longitude": "-",
"parent_id": 0
},
{
"id": 25,
"name": "Preventive Medicine",
"specialty": "-",
"location": "-",
"latitude": "-",
"longitude": "-",
"parent_id": 0
},
{
"id": 26,
"name": "Psychiatry",
"specialty": "-",
"location": "-",
"latitude": "-",
"longitude": "-",
"parent_id": 0
},
{
"id": 27,
"name": "Radiation Oncology",
"specialty": "-",
"location": "-",
"latitude": "-",
"longitude": "-",
"parent_id": 0
},
{
"id": 28,
"name": "Radiology, Diagnostic",
"specialty": "-",
"location": "-",
"latitude": "-",
"longitude": "-",
"parent_id": 0
},
{
"id": 10,
"name": "Radiology, Interventional - Integrated",
"specialty": "-",
"location": "-",
"latitude": "-",
"longitude": "-",
"parent_id": 0
},
{
"id": 29,
"name": "Surgery, General",
"specialty": "-",
"location": "-",
"latitude": "-",
"longitude": "-",
"parent_id": 0
},
{
"id": 30,
"name": "Thoracic Surgery",
"specialty": "-",
"location": "-",
"latitude": "-",
"longitude": "-",
"parent_id": 0
},
{
"id": 31,
"name": "Thoracic Surgery - Integrated",
"specialty": "-",
"location": "-",
"latitude": "-",
"longitude": "-",
"parent_id": 0
},
{
"id": 32,
"name": "Transitional Year",
"specialty": "-",
"location": "-",
"latitude": "-",
"longitude": "-",
"parent_id": 0
},
{
"id": 33,
"name": "Urology",
"specialty": "-",
"location": "-",
"latitude": "-",
"longitude": "-",
"parent_id": 0
},
{
"id": 34,
"name": "Vascular Surgery - Integrated",
"specialty": "-",
"location": "-",
"latitude": "-",
"longitude": "-",
"parent_id": 0
},
{
"id": 35,
"name": "---Fellowships---",
"specialty": "-",
"location": "-",
"latitude": "-",
"longitude": "-",
"parent_id": 0
},
{
"id": 36,
"name": "Pulmonary Disease and Critical Care",
"specialty": "-",
"location": "-",
"latitude": "-",
"longitude": "-",
"parent_id": 0
},
{
"id": 37,
"name": "Albany Medical Center Program",
"specialty": "Allergy and Immunology",
"location": "Albany, NY 12203   ",
"latitude": 42.6823182,
"longitude": -73.8477874,
"parent_id": 1
},
{
"id": 38,
"name": "Baylor College of Medicine Program",
"specialty": "Allergy and Immunology",
"location": "Houston, TX 77030 ",
"latitude": 29.7050857,
"longitude": -95.40180869999999,
"parent_id": 1
},
{
"id": 39,
"name": "Boston University Medical Center Program",
"specialty": "Allergy and Immunology",
"location": "Boston, MA 02118 ",
"latitude": 42.3377967,
"longitude": -71.0705763,
"parent_id": 1
},
{
"id": 40,
"name": "Brigham and Women's Hospital Program",
"specialty": "Allergy and Immunology",
"location": "Boston, MA 02115 ",
"latitude": 42.339904,
"longitude": -71.0898892,
"parent_id": 1
},
{
"id": 41,
"name": "Case Western Reserve University/University Hospitals Cleveland Medical Center Program",
"specialty": "Allergy and Immunology",
"location": "Mayfield Hts, OH 44124-4034     ",
"latitude": 41.5192189,
"longitude": -81.45789599999999,
"parent_id": 1
},
{
"id": 42,
"name": "Children's Hospital of Philadelphia Program",
"specialty": "Allergy and Immunology",
"location": "Philadelphia, PA 19104 ",
"latitude": 39.9583587,
"longitude": -75.1953934,
"parent_id": 1
},
{
"id": 43,
"name": "Boston Children's Hospital Program",
"specialty": "Allergy and Immunology",
"location": "Boston, MA 02115 ",
"latitude": 42.339904,
"longitude": -71.0898892,
"parent_id": 1
},
{
"id": 44,
"name": "Children’s Hospital of Michigan Program",
"specialty": "Allergy and Immunology",
"location": "Detroit, MI 48201 ",
"latitude": 42.348495,
"longitude": -83.0602998,
"parent_id": 1
},
{
"id": 45,
"name": "Cleveland Clinic Foundation Program",
"specialty": "Allergy and Immunology",
"location": "Cleveland, OH 44195   ",
"latitude": 41.5034177,
"longitude": -81.6204806,
"parent_id": 1
},
{
"id": 46,
"name": "Duke University Hospital Program",
"specialty": "Allergy and Immunology",
"location": "Durham, NC 27710 ",
"latitude": 36.0038131,
"longitude": -78.9387241,
"parent_id": 1
},
{
"id": 47,
"name": "Emory University School of Medicine Program",
"specialty": "Allergy and Immunology",
"location": "Atlanta, GA 30322   ",
"latitude": 33.7980995,
"longitude": -84.3259367,
"parent_id": 1
},
{
"id": 48,
"name": "Henry Ford Hospital/Wayne State University Program",
"specialty": "Allergy and Immunology",
"location": "Detroit, MI 48202   ",
"latitude": 42.3664506,
"longitude": -83.0737195,
"parent_id": 1
},
{
"id": 49,
"name": "Icahn School of Medicine at Mount Sinai Program",
"specialty": "Allergy and Immunology",
"location": "New York, NY 10029 ",
"latitude": 40.79164069999999,
"longitude": -73.9447994,
"parent_id": 1
},
{
"id": 50,
"name": "Indiana University School of Medicine Program",
"specialty": "Allergy and Immunology",
"location": "Indianapolis, IN 46202   ",
"latitude": 39.7794767,
"longitude": -86.1700894,
"parent_id": 1
},
{
"id": 51,
"name": "Johns Hopkins University Program",
"specialty": "Allergy and Immunology",
"location": "Baltimore, MD 21224   ",
"latitude": 39.2713976,
"longitude": -76.5603828,
"parent_id": 1
},
{
"id": 52,
"name": "Kaiser Permanente Southern California (Los Angeles) Program",
"specialty": "Allergy and Immunology",
"location": "Los Angeles, CA 90027 ",
"latitude": 34.1220545,
"longitude": -118.2935891,
"parent_id": 1
},
{
"id": 53,
"name": "Louisiana State University (Shreveport) Program",
"specialty": "Allergy and Immunology",
"location": "Shreveport, LA 71130 ",
"latitude": 32.49,
"longitude": -93.77,
"parent_id": 1
},
{
"id": 54,
"name": "Louisiana State University Program",
"specialty": "Allergy and Immunology",
"location": "New Orleans, LA 70118 ",
"latitude": 29.9450835,
"longitude": -90.1261013,
"parent_id": 1
},
{
"id": 55,
"name": "Massachusetts General Hospital Program",
"specialty": "Allergy and Immunology",
"location": "Boston, MA 02114 ",
"latitude": 42.3652917,
"longitude": -71.0646337,
"parent_id": 1
},
{
"id": 56,
"name": "Mayo Clinic College of Medicine and Science (Arizona) Program",
"specialty": "Allergy and Immunology",
"location": "Scottsdale, AZ 85259     ",
"latitude": 33.5910441,
"longitude": -111.7972384,
"parent_id": 1
},
{
"id": 57,
"name": "Mayo Clinic College of Medicine and Science (Rochester) Program",
"specialty": "Allergy and Immunology",
"location": "Rochester, MN 55905   ",
"latitude": 44.0557303,
"longitude": -92.5253639,
"parent_id": 1
},
{
"id": 58,
"name": "McGaw Medical Center of Northwestern University Program",
"specialty": "Allergy and Immunology",
"location": "Chicago, IL 60611 41.8931327",
"latitude": 41.8925085,
"longitude": -87.61616959999999,
"parent_id": 1
},
{
"id": 59,
"name": "Medical College of Georgia Program",
"specialty": "Allergy and Immunology",
"location": "Augusta, GA 30912 ",
"latitude": 33.4706725,
"longitude": -81.9861463,
"parent_id": 1
},
{
"id": 60,
"name": "Montefiore Medical Center/Albert Einstein College of Medicine Program",
"specialty": "Allergy and Immunology",
"location": "Bronx, NY 10461 ",
"latitude": 40.8476284,
"longitude": -73.8360251,
"parent_id": 1
},
{
"id": 61,
"name": "National Capital Consortium Program",
"specialty": "Allergy and Immunology",
"location": "Bethesda, MD 20889-5600 ",
"latitude": 39.0083306,
"longitude": -77.09637599999999,
"parent_id": 1
},
{
"id": 62,
"name": "National Institutes of Health Clinical Center Program",
"specialty": "Allergy and Immunology",
"location": "Bethesda, MD 20892-1899 ",
"latitude": 39.0023604,
"longitude": -77.097455,
"parent_id": 1
},
{
"id": 63,
"name": "New York Presbyterian Hospital (Columbia Campus) Program",
"specialty": "Allergy and Immunology",
"location": "New York, NY 10032 ",
"latitude": 40.8409822,
"longitude": -73.9447994,
"parent_id": 1
},
{
"id": 64,
"name": "Nicklaus Children's Hospital Program",
"specialty": "Allergy and Immunology",
"location": "Miami, FL 33155 ",
"latitude": 25.7360194,
"longitude": -80.3157397,
"parent_id": 1
},
{
"id": 65,
"name": "NYU Winthrop Hospital Program",
"specialty": "Allergy and Immunology",
"location": "Mineola, NY 11501 ",
"latitude": 40.7476654,
"longitude": -73.6389038,
"parent_id": 1
},
{
"id": 66,
"name": "Ohio State University Hospital Program",
"specialty": "Allergy and Immunology",
"location": "Columbus, OH 43212 ",
"latitude": 39.98263960000001,
"longitude": -83.04150779999999,
"parent_id": 1
},
{
"id": 67,
"name": "Penn State Milton S Hershey Medical Center Program",
"specialty": "Allergy and Immunology",
"location": "Hershey, PA 17033   ",
"latitude": 40.2713328,
"longitude": -76.6297189,
"parent_id": 1
},
{
"id": 68,
"name": "Rush University Medical Center Program",
"specialty": "Allergy and Immunology",
"location": "Chicago, IL 60612 ",
"latitude": 41.8816606,
"longitude": -87.6926257,
"parent_id": 1
},
{
"id": 69,
"name": "Rutgers New Jersey Medical School Program",
"specialty": "Allergy and Immunology",
"location": "Newark, NJ 07103 ",
"latitude": 40.7383636,
"longitude": -74.197388,
"parent_id": 1
},
{
"id": 70,
"name": "San Antonio Uniformed Services Health Education Consortium Program",
"specialty": "Allergy and Immunology",
"location": "San Antonio, TX 78236 ",
"latitude": 29.3887899,
"longitude": -98.61057029999999,
"parent_id": 1
},
{
"id": 71,
"name": "Scripps Clinic/Scripps Green Hospital Program",
"specialty": "Allergy and Immunology",
"location": "La Jolla, CA 92037   ",
"latitude": 32.8283259,
"longitude": -117.255854,
"parent_id": 1
},
{
"id": 72,
"name": "Sidney Kimmel Medical College at Thomas Jefferson University/duPont Hospital for Children Program",
"specialty": "Allergy and Immunology",
"location": "Wilmington, DE 19803-3607 ",
"latitude": 39.7961255,
"longitude": -75.5393155,
"parent_id": 1
},
{
"id": 73,
"name": "St Louis University School of Medicine Program",
"specialty": "Allergy and Immunology",
"location": "St Louis, MO 63104 ",
"latitude": 38.6160491,
"longitude": -90.2291565,
"parent_id": 1
},
{
"id": 74,
"name": "Stanford Health Care-Sponsored Stanford University Program",
"specialty": "Allergy and Immunology",
"location": "Stanford, CA 94305 ",
"latitude": 37.4135757,
"longitude": -122.1689284,
"parent_id": 1
},
{
"id": 75,
"name": "SUNY Health Science Center at Brooklyn Program",
"specialty": "Allergy and Immunology",
"location": "Brooklyn, NY 11203   ",
"latitude": 40.6515882,
"longitude": -73.93304289999999,
"parent_id": 1
},
{
"id": 76,
"name": "Tulane University Program",
"specialty": "Allergy and Immunology",
"location": "New Orleans, LA 70112 ",
"latitude": 29.95957689999999,
"longitude": -90.0770127,
"parent_id": 1
},
{
"id": 77,
"name": "UCLA David Geffen School of Medicine/UCLA Medical Center Program",
"specialty": "Allergy and Immunology",
"location": "Los Angeles, CA 90095 ",
"latitude": 34.070264,
"longitude": -118.4440562,
"parent_id": 1
},
{
"id": 78,
"name": "University at Buffalo Program",
"specialty": "Allergy and Immunology",
"location": "Buffalo, NY 14203   ",
"latitude": 42.8667771,
"longitude": -78.8750644,
"parent_id": 1
},
{
"id": 79,
"name": "University of Alabama Medical Center Program",
"specialty": "Allergy and Immunology",
"location": "Birmingham, AL 35233 ",
"latitude": 33.5118197,
"longitude": -86.8011326,
"parent_id": 1
},
{
"id": 80,
"name": "University of Arizona College of Medicine-Tucson Program",
"specialty": "Allergy and Immunology",
"location": "Tucson, AZ 85724-5030   ",
"latitude": 32.2226066,
"longitude": -110.9747108,
"parent_id": 1
},
{
"id": 81,
"name": "University of California (Irvine) Program",
"specialty": "Allergy and Immunology",
"location": "Irvine, CA 92697-4069   ",
"latitude": 33.6471239,
"longitude": -117.8421325,
"parent_id": 1
},
{
"id": 82,
"name": "University of California (San Diego) Medical Center Program",
"specialty": "Allergy and Immunology",
"location": "La Jolla, CA 92093-0635 ",
"latitude": 32.88435520000001,
"longitude": -117.2338066,
"parent_id": 1
},
{
"id": 83,
"name": "University of California (San Francisco) School of Medicine Program",
"specialty": "Allergy and Immunology",
"location": "San Francisco, CA 94158 ",
"latitude": 37.7748363,
"longitude": -122.3872576,
"parent_id": 1
},
{
"id": 84,
"name": "University of California Davis Health Program",
"specialty": "Allergy and Immunology",
"location": "Davis, CA 95616 ",
"latitude": 38.5449065,
"longitude": -121.7405167,
"parent_id": 1
},
{
"id": 85,
"name": "University of Cincinnati Medical Center/College of Medicine//Cincinnati Children's Program",
"specialty": "Allergy and Immunology",
"location": "Cincinnati, OH 45229   ",
"latitude": 39.1540971,
"longitude": -84.485507,
"parent_id": 1
},
{
"id": 86,
"name": "University of Colorado School of Medicine/Children's Hospital Colorado Program",
"specialty": "Allergy and Immunology",
"location": "Aurora, CO 80045   ",
"latitude": 39.7503186,
"longitude": -104.8367063,
"parent_id": 1
},
{
"id": 87,
"name": "University of Colorado School of Medicine/National Jewish Health (Pediatric) Program",
"specialty": "Allergy and Immunology",
"location": "Denver, CO 80206   ",
"latitude": 39.7271021,
"longitude": -104.9564084,
"parent_id": 1
},
{
"id": 88,
"name": "University of Colorado School of Medicine/National Jewish Health (Adult) Program",
"specialty": "Allergy and Immunology",
"location": "Denver, CO 80206 ",
"latitude": 39.7271021,
"longitude": -104.9564084,
"parent_id": 1
},
{
"id": 89,
"name": "University of Iowa Hospitals and Clinics Program",
"specialty": "Allergy and Immunology",
"location": "Iowa City, IA 52242-1081 ",
"latitude": 41.659363,
"longitude": -91.54870989999999,
"parent_id": 1
},
{
"id": 90,
"name": "University of Kansas School of Medicine Program",
"specialty": "Allergy and Immunology",
"location": "Kansas City, KS 66160 ",
"latitude": 39.06,
"longitude": -94.61,
"parent_id": 1
},
{
"id": 91,
"name": "University of Michigan Health System Program",
"specialty": "Allergy and Immunology",
"location": "Ann Arbor, MI 48106 ",
"latitude": 42.2721528,
"longitude": -83.7754758,
"parent_id": 1
},
{
"id": 92,
"name": "University of Mississippi Medical Center Program",
"specialty": "Allergy and Immunology",
"location": "Jackson, MS 39216 ",
"latitude": 32.3361632,
"longitude": -90.15652089999999,
"parent_id": 1
},
{
"id": 93,
"name": "University of Missouri-Kansas City School of Medicine Program",
"specialty": "Allergy and Immunology",
"location": "Kansas City, MO 64108   ",
"latitude": 39.0795392,
"longitude": -94.5985613,
"parent_id": 1
},
{
"id": 94,
"name": "University of North Carolina Hospitals Program",
"specialty": "Allergy and Immunology",
"location": "Chapel Hill, NC 27599 ",
"latitude": 35.905249,
"longitude": -79.0581498,
"parent_id": 1
},
{
"id": 95,
"name": "University of Pennsylvania Health System Program",
"specialty": "Allergy and Immunology",
"location": "Philadelphia, PA 19104 ",
"latitude": 39.9583587,
"longitude": -75.1953934,
"parent_id": 1
},
{
"id": 96,
"name": "University of Puerto Rico Program",
"specialty": "Allergy and Immunology",
"location": "San Juan, PR 00936 ",
"latitude": 18.466224,
"longitude": -66.1057244,
"parent_id": 1
},
{
"id": 97,
"name": "University of Rochester Program",
"specialty": "Allergy and Immunology",
"location": "Rochester, NY 14642   ",
"latitude": 43.12247660000001,
"longitude": -77.62425739999999,
"parent_id": 1
},
{
"id": 98,
"name": "University of South Florida Morsani (All Children's) Program",
"specialty": "Allergy and Immunology",
"location": "St Petersburg, FL 33701   ",
"latitude": 27.7696063,
"longitude": -82.6321376,
"parent_id": 1
},
{
"id": 99,
"name": "University of South Florida Morsani Program",
"specialty": "Allergy and Immunology",
"location": "Tampa, FL 33612 ",
"latitude": 28.0563834,
"longitude": -82.4427769,
"parent_id": 1
},
{
"id": 100,
"name": "University of Southern California/LAC+USC Medical Center Program",
"specialty": "Allergy and Immunology",
"location": "Los Angeles, CA 90033 ",
"latitude": 34.0502898,
"longitude": -118.2117257,
"parent_id": 1
},
{
"id": 101,
"name": "University of Tennessee Program",
"specialty": "Allergy and Immunology",
"location": "Memphis, TN 38103 ",
"latitude": 35.1428747,
"longitude": -90.0523125,
"parent_id": 1
},
{
"id": 102,
"name": "University of Texas Medical Branch Hospitals Program",
"specialty": "Allergy and Immunology",
"location": "Galveston, TX 77555 ",
"latitude": 29.3106102,
"longitude": -94.77724930000001,
"parent_id": 1
},
{
"id": 103,
"name": "University of Texas Southwestern Medical School Program",
"specialty": "Allergy and Immunology",
"location": "Dallas, TX 75390-8859   ",
"latitude": 32.8113367,
"longitude": -96.8397899,
"parent_id": 1
},
{
"id": 104,
"name": "University of Virginia Medical Center Program",
"specialty": "Allergy and Immunology",
"location": "Charlottesville, VA 22908 ",
"latitude": 38.031942,
"longitude": -78.49858499999999,
"parent_id": 1
},
{
"id": 105,
"name": "University of Washington Program",
"specialty": "Allergy and Immunology",
"location": "Seattle, WA 98109-4725 ",
"latitude": 47.6288591,
"longitude": -122.3456919,
"parent_id": 1
},
{
"id": 106,
"name": "University of Wisconsin Hospitals and Clinics Program",
"specialty": "Allergy and Immunology",
"location": "Madison, WI 53792-9988 ",
"latitude": 43.0772547,
"longitude": -89.430773,
"parent_id": 1
},
{
"id": 107,
"name": "UPMC Medical Education Program",
"specialty": "Allergy and Immunology",
"location": "Pittsburgh, PA 15224   ",
"latitude": 40.467202,
"longitude": -79.94445259999999,
"parent_id": 1
},
{
"id": 108,
"name": "VA Greater Los Angeles Healthcare System Program",
"specialty": "Allergy and Immunology",
"location": "Los Angeles, CA 90073 ",
"latitude": 34.0522561,
"longitude": -118.452087,
"parent_id": 1
},
{
"id": 109,
"name": "Vanderbilt University Medical Center Program",
"specialty": "Allergy and Immunology",
"location": "Nashville, TN 37232-2650 ",
"latitude": 36.1426398,
"longitude": -86.8001068,
"parent_id": 1
},
{
"id": 110,
"name": "Virginia Commonwealth University Health System Program",
"specialty": "Allergy and Immunology",
"location": "Richmond, VA 23298-0509   ",
"latitude": 37.5433009,
"longitude": -77.4293184,
"parent_id": 1
},
{
"id": 111,
"name": "Wake Forest University School of Medicine Program",
"specialty": "Allergy and Immunology",
"location": "Winston-Salem, NC 27157 ",
"latitude": 36.0906568,
"longitude": -80.27153849999999,
"parent_id": 1
},
{
"id": 112,
"name": "Washington University/B-JH/SLCH Consortium Program",
"specialty": "Allergy and Immunology",
"location": "St Louis, MO 63110   ",
"latitude": 38.6212468,
"longitude": -90.2526163,
"parent_id": 1
},
{
"id": 113,
"name": "Yale-New Haven Medical Center Program",
"specialty": "Allergy and Immunology",
"location": "New Haven, CT 06520 ",
"latitude": 41.3064267,
"longitude": -72.9310217,
"parent_id": 1
},
{
"id": 114,
"name": "Zucker School of Medicine at Hofstra/Northwell Program",
"specialty": "Allergy and Immunology",
"location": "Great Neck, NY 11021 ",
"latitude": 40.7851185,
"longitude": -73.7271909,
"parent_id": 1
},
{
"id": 115,
"name": "Advocate Health Care (Advocate Illinois Masonic Medical Center) Program",
"specialty": "Anesthesiology",
"location": " Chicago, IL 60657",
"latitude": 41.9403795,
"longitude": -87.65318049999999,
"parent_id": 2
},
{
"id": 116,
"name": "Albany Medical Center Program",
"specialty": "Anesthesiology",
"location": " Albany, NY 12208",
"latitude": 42.6547387,
"longitude": -73.7889689,
"parent_id": 2
},
{
"id": 117,
"name": "Allegheny Health Network Medical Education Consortium (AGH/WPH) Program",
"specialty": "Anesthesiology",
"location": " Pittsburgh, PA 15212",
"latitude": 40.4828051,
"longitude": -80.0367259,
"parent_id": 2
},
{
"id": 118,
"name": "Baylor College of Medicine Program",
"specialty": "Anesthesiology",
"location": " Houston, TX 77030",
"latitude": 29.7050857,
"longitude": -95.40180869999999,
"parent_id": 2
},
{
"id": 119,
"name": "Beaumont Health (Royal Oak) Program",
"specialty": "Anesthesiology",
"location": " Royal Oak, MI 48073",
"latitude": 42.5183235,
"longitude": -83.15953999999999,
"parent_id": 2
},
{
"id": 120,
"name": "Beth Israel Deaconess Medical Center Program",
"specialty": "Anesthesiology",
"location": " Boston, MA 02215",
"latitude": 42.3476181,
"longitude": -71.1002881,
"parent_id": 2
},
{
"id": 121,
"name": "Boston University Medical Center Program",
"specialty": "Anesthesiology",
"location": " Boston, MA 02118",
"latitude": 42.3377967,
"longitude": -71.0705763,
"parent_id": 2
},
{
"id": 122,
"name": "Brigham and Women's Hospital Program",
"specialty": "Anesthesiology",
"location": " Boston, MA 02115",
"latitude": 42.339904,
"longitude": -71.0898892,
"parent_id": 2
},
{
"id": 123,
"name": "Brown University/Rhode Island Hospital-Lifespan Program",
"specialty": "Anesthesiology",
"location": " Providence, RI 02903",
"latitude": 41.816736,
"longitude": -71.40915629999999,
"parent_id": 2
},
{
"id": 124,
"name": "Case Western Reserve University (MetroHealth) Program",
"specialty": "Anesthesiology",
"location": " Cleveland, OH 44109",
"latitude": 41.4513221,
"longitude": -81.7021049,
"parent_id": 2
},
{
"id": 125,
"name": "Case Western Reserve University/University Hospitals Cleveland Medical Center Program",
"specialty": "Anesthesiology",
"location": " Cleveland, OH 44106",
"latitude": 41.5091257,
"longitude": -81.6089873,
"parent_id": 2
},
{
"id": 126,
"name": "Cedars-Sinai Medical Center Program",
"specialty": "Anesthesiology",
"location": " Los Angeles, CA 90048",
"latitude": 34.0741548,
"longitude": -118.3724915,
"parent_id": 2
},
{
"id": 127,
"name": "Cleveland Clinic Florida Program",
"specialty": "Anesthesiology",
"location": " Weston, FL 33331",
"latitude": 26.0621374,
"longitude": -80.3769999,
"parent_id": 2
},
{
"id": 128,
"name": "Cleveland Clinic Foundation Program",
"specialty": "Anesthesiology",
"location": " Cleveland, OH 44195",
"latitude": 41.5034177,
"longitude": -81.6204806,
"parent_id": 2
},
{
"id": 129,
"name": "Cleveland Clinic Foundation/South Pointe Hospital Program",
"specialty": "Anesthesiology",
"location": " Warrensville Heights, OH 44122",
"latitude": 41.4323067,
"longitude": -81.5102655,
"parent_id": 2
},
{
"id": 130,
"name": "Cook County Health and Hospitals System Program",
"specialty": "Anesthesiology",
"location": " Chicago, IL 60612",
"latitude": 41.8816606,
"longitude": -87.6926257,
"parent_id": 2
},
{
"id": 131,
"name": "Cooper Medical School of Rowan University/Cooper University Hospital Program",
"specialty": "Anesthesiology",
"location": " Camden, NJ 08103",
"latitude": 39.937645,
"longitude": -75.1136721,
"parent_id": 2
},
{
"id": 132,
"name": "Detroit Medical Center/Wayne State University Program",
"specialty": "Anesthesiology",
"location": " Detroit, MI 48201",
"latitude": 42.348495,
"longitude": -83.0602998,
"parent_id": 2
},
{
"id": 133,
"name": "Doctors Hospital/OhioHealth Program",
"specialty": "Anesthesiology",
"location": " Columbus, OH 43228",
"latitude": 39.9571056,
"longitude": -83.1273705,
"parent_id": 2
},
{
"id": 134,
"name": "Drexel University College of Medicine/Hahnemann University Hospital Program",
"specialty": "Anesthesiology",
"location": " Philadelphia, PA 19102",
"latitude": 39.9556241,
"longitude": -75.1647529,
"parent_id": 2
},
{
"id": 135,
"name": "Duke University Hospital Program",
"specialty": "Anesthesiology",
"location": " Durham, NC 27710",
"latitude": 36.0038131,
"longitude": -78.9387241,
"parent_id": 2
},
{
"id": 136,
"name": "Emory University School of Medicine Program",
"specialty": "Anesthesiology",
"location": " Atlanta, GA 30322",
"latitude": 33.7980995,
"longitude": -84.3259367,
"parent_id": 2
},
{
"id": 137,
"name": "Geisinger Health System Program",
"specialty": "Anesthesiology",
"location": " Danville, PA 17822",
"latitude": 40.9675163,
"longitude": -76.60444439999999,
"parent_id": 2
},
{
"id": 138,
"name": "George Washington University Program",
"specialty": "Anesthesiology",
"location": " Washington, DC 20037",
"latitude": 38.9042365,
"longitude": -77.0521289,
"parent_id": 2
},
{
"id": 139,
"name": "Hackensack University Medical Center Program",
"specialty": "Anesthesiology",
"location": " Hackensack, NJ 07601",
"latitude": 40.8876273,
"longitude": -74.04763779999999,
"parent_id": 2
},
{
"id": 140,
"name": "HCA West Florida GME Consortium/Largo Medical Center Program",
"specialty": "Anesthesiology",
"location": " Largo, FL 33770",
"latitude": 27.9180298,
"longitude": -82.79402970000001,
"parent_id": 2
},
{
"id": 141,
"name": "HCA West Florida GME Consortium/Oak Hill Hospital Program",
"specialty": "Anesthesiology",
"location": " Brooksville, FL 34613",
"latitude": 28.5552719,
"longitude": -82.3878709,
"parent_id": 2
},
{
"id": 142,
"name": "Henry Ford Hospital/Wayne State University Program",
"specialty": "Anesthesiology",
"location": " Detroit, MI 48202",
"latitude": 42.3664506,
"longitude": -83.0737195,
"parent_id": 2
},
{
"id": 143,
"name": "Icahn School of Medicine at Mount Sinai Program",
"specialty": "Anesthesiology",
"location": " New York, NY 10029",
"latitude": 40.79164069999999,
"longitude": -73.9447994,
"parent_id": 2
},
{
"id": 144,
"name": "Icahn School of Medicine at Mount Sinai/St Luke’s-Roosevelt Hospital Center Program",
"specialty": "Anesthesiology",
"location": " New York, NY 10025",
"latitude": 40.7999209,
"longitude": -73.96831019999999,
"parent_id": 2
},
{
"id": 145,
"name": "Indiana University School of Medicine Program",
"specialty": "Anesthesiology",
"location": " Indianapolis, IN 46202",
"latitude": 39.7794767,
"longitude": -86.1700894,
"parent_id": 2
},
{
"id": 146,
"name": "Jackson Memorial Hospital/Jackson Health System Program",
"specialty": "Anesthesiology",
"location": " Miami, FL 33136",
"latitude": 25.7870967,
"longitude": -80.2042436,
"parent_id": 2
},
{
"id": 147,
"name": "Johns Hopkins University Program",
"specialty": "Anesthesiology",
"location": " Baltimore, MD 21287",
"latitude": 39.2962372,
"longitude": -76.5928888,
"parent_id": 2
},
{
"id": 148,
"name": "Kaweah Delta Health Care District (KDHCD) Program",
"specialty": "Anesthesiology",
"location": " Visalia, CA 93291",
"latitude": 36.3696012,
"longitude": -119.3947135,
"parent_id": 2
},
{
"id": 149,
"name": "Kendall Regional Medical Center Program",
"specialty": "Anesthesiology",
"location": " Miami, FL 33175",
"latitude": 25.7357116,
"longitude": -80.3992652,
"parent_id": 2
},
{
"id": 150,
"name": "Kettering Health Network Program",
"specialty": "Anesthesiology",
"location": " Dayton, OH 45405",
"latitude": 39.7909447,
"longitude": -84.21207,
"parent_id": 2
},
{
"id": 151,
"name": "Lahey Clinic Program",
"specialty": "Anesthesiology",
"location": " Burlington, MA 01805",
"latitude": 42.4883003,
"longitude": -71.2015991,
"parent_id": 2
},
{
"id": 152,
"name": "Larkin Community Hospital Program",
"specialty": "Anesthesiology",
"location": " South Miami , FL 33143",
"latitude": 25.6993807,
"longitude": -80.29345219999999,
"parent_id": 2
},
{
"id": 153,
"name": "Loma Linda University Health Education Consortium Program",
"specialty": "Anesthesiology",
"location": " Loma Linda, CA 92354",
"latitude": 34.0484387,
"longitude": -117.2499749,
"parent_id": 2
},
{
"id": 154,
"name": "Los Angeles County-Harbor-UCLA Medical Center Program",
"specialty": "Anesthesiology",
"location": " Torrance, CA 90509",
"latitude": 33.83,
"longitude": -118.33,
"parent_id": 2
},
{
"id": 155,
"name": "Louisiana State University (Shreveport) Program",
"specialty": "Anesthesiology",
"location": " Shreveport, LA 71130",
"latitude": 32.49,
"longitude": -93.77,
"parent_id": 2
},
{
"id": 156,
"name": "Louisiana State University Program",
"specialty": "Anesthesiology",
"location": " New Orleans, LA 70112",
"latitude": 29.95957689999999,
"longitude": -90.0770127,
"parent_id": 2
},
{
"id": 157,
"name": "Loyola University Medical Center Program",
"specialty": "Anesthesiology",
"location": " Maywood, IL 60153",
"latitude": 41.8791979,
"longitude": -87.8431155,
"parent_id": 2
},
{
"id": 158,
"name": "Maimonides Medical Center Program",
"specialty": "Anesthesiology",
"location": " Brooklyn, NY 11219",
"latitude": 40.6310753,
"longitude": -73.9976946,
"parent_id": 2
},
{
"id": 159,
"name": "Maine Medical Center Program",
"specialty": "Anesthesiology",
"location": " Portland, ME 04102",
"latitude": 43.6611308,
"longitude": -70.2989334,
"parent_id": 2
},
{
"id": 160,
"name": "Mary Hitchcock Memorial Hospital/Dartmouth-Hitchcock Program",
"specialty": "Anesthesiology",
"location": " Lebanon, NH 03756",
"latitude": 43.6760215,
"longitude": -72.27309939999999,
"parent_id": 2
},
{
"id": 161,
"name": "Massachusetts General Hospital Program",
"specialty": "Anesthesiology",
"location": " Boston, MA 02114",
"latitude": 42.3652917,
"longitude": -71.0646337,
"parent_id": 2
},
{
"id": 162,
"name": "Mayo Clinic College of Medicine and Science (Arizona) Program",
"specialty": "Anesthesiology",
"location": " Phoenix, AZ 85054",
"latitude": 33.6923299,
"longitude": -111.9403254,
"parent_id": 2
},
{
"id": 163,
"name": "Mayo Clinic College of Medicine and Science (Jacksonville) Program",
"specialty": "Anesthesiology",
"location": " Jacksonville, FL 32224",
"latitude": 30.2606613,
"longitude": -81.46085599999999,
"parent_id": 2
},
{
"id": 164,
"name": "Mayo Clinic College of Medicine and Science (Rochester) Program",
"specialty": "Anesthesiology",
"location": " Rochester, MN 55905",
"latitude": 44.0557303,
"longitude": -92.5253639,
"parent_id": 2
},
{
"id": 165,
"name": "McGaw Medical Center of Northwestern University Program",
"specialty": "Anesthesiology",
"location": " Chicago, IL 60611",
"latitude": 41.8925085,
"longitude": -87.61616959999999,
"parent_id": 2
},
{
"id": 166,
"name": "McLaren Health Care/Greater Lansing/MSU Program",
"specialty": "Anesthesiology",
"location": "Lansing, MI 48910",
"latitude": 42.7043124,
"longitude": -84.5327038,
"parent_id": 2
},
{
"id": 167,
"name": "McLaren Health Care/Oakland/MSU Program",
"specialty": "Anesthesiology",
"location": "Pontiac, MI 48342",
"latitude": 42.642381,
"longitude": -83.27735899999999,
"parent_id": 2
},
{
"id": 168,
"name": "Medical College of Georgia Program",
"specialty": "Anesthesiology",
"location": "Augusta, GA 30912",
"latitude": 33.4706725,
"longitude": -81.9861463,
"parent_id": 2
},
{
"id": 169,
"name": "Medical College of Wisconsin Affiliated Hospitals Program",
"specialty": "Anesthesiology",
"location": " Milwaukee, WI 53226",
"latitude": 43.0513426,
"longitude": -88.0411993,
"parent_id": 2
},
{
"id": 170,
"name": "Medical University of South Carolina Program",
"specialty": "Anesthesiology",
"location": " Charleston, SC 29425",
"latitude": 32.785895,
"longitude": -79.94794960000002,
"parent_id": 2
},
{
"id": 171,
"name": "MedStar Health/Georgetown University Hospital Program",
"specialty": "Anesthesiology",
"location": " Washington, DC 20007",
"latitude": 38.9156487,
"longitude": -77.0737149,
"parent_id": 2
},
{
"id": 172,
"name": "Montefiore Medical Center/Albert Einstein College of Medicine Program",
"specialty": "Anesthesiology",
"location": " Bronx, NY 10467",
"latitude": 40.8723987,
"longitude": -73.8713099,
"parent_id": 2
},
{
"id": 173,
"name": "Mount Sinai Medical Center of Florida, Inc Program",
"specialty": "Anesthesiology",
"location": " Miami Beach, FL 33140",
"latitude": 25.8176795,
"longitude": -80.13727569999999,
"parent_id": 2
},
{
"id": 174,
"name": "National Capital Consortium Program",
"specialty": "Anesthesiology",
"location": " Bethesda, MD 20814",
"latitude": 39.0038878,
"longitude": -77.1053673,
"parent_id": 2
},
{
"id": 175,
"name": "Naval Medical Center (Portsmouth) Program",
"specialty": "Anesthesiology",
"location": " Portsmouth, VA 23708",
"latitude": 36.84982189999999,
"longitude": -76.305109,
"parent_id": 2
},
{
"id": 176,
"name": "Naval Medical Center (San Diego) Program",
"specialty": "Anesthesiology",
"location": " San Diego, CA 92134",
"latitude": 32.7240705,
"longitude": -117.1463285,
"parent_id": 2
},
{
"id": 177,
"name": "New York Presbyterian Hospital (Columbia Campus) Program",
"specialty": "Anesthesiology",
"location": " New York, NY 10032",
"latitude": 40.8409822,
"longitude": -73.9447994,
"parent_id": 2
},
{
"id": 178,
"name": "New York Presbyterian Hospital (Cornell Campus) Program",
"specialty": "Anesthesiology",
"location": " New York, NY 10065",
"latitude": 40.7645239,
"longitude": -73.96243270000001,
"parent_id": 2
},
{
"id": 179,
"name": "New York University School of Medicine Program",
"specialty": "Anesthesiology",
"location": " New York, NY 10016",
"latitude": 40.74727,
"longitude": -73.9800645,
"parent_id": 2
},
{
"id": 180,
"name": "New York-Presbyterian Brooklyn Methodist Hospital Program",
"specialty": "Anesthesiology",
"location": " Brooklyn, NY 11215",
"latitude": 40.6681669,
"longitude": -73.9800645,
"parent_id": 2
},
{
"id": 181,
"name": "Ochsner Clinic Foundation Program",
"specialty": "Anesthesiology",
"location": " New Orleans, LA 70121",
"latitude": 29.9595011,
"longitude": -90.16120289999999,
"parent_id": 2
},
{
"id": 182,
"name": "Ohio State University Hospital Program",
"specialty": "Anesthesiology",
"location": " Columbus, OH 43210",
"latitude": 39.9990626,
"longitude": -83.01733860000002,
"parent_id": 2
},
{
"id": 183,
"name": "Oklahoma State University Center for Health Sciences Program",
"specialty": "Anesthesiology",
"location": " Tulsa, OK 74107",
"latitude": 36.0993914,
"longitude": -96.0573302,
"parent_id": 2
},
{
"id": 184,
"name": "Oregon Health & Science University Program",
"specialty": "Anesthesiology",
"location": " Portland, OR 97239",
"latitude": 45.4874111,
"longitude": -122.6875541,
"parent_id": 2
},
{
"id": 185,
"name": "Penn State Milton S Hershey Medical Center Program",
"specialty": "Anesthesiology",
"location": " Hershey, PA 17033",
"latitude": 40.2713328,
"longitude": -76.6297189,
"parent_id": 2
},
{
"id": 186,
"name": "Riverside University Health System Program",
"specialty": "Anesthesiology",
"location": " Moreno Valley, CA 92555",
"latitude": 33.9206847,
"longitude": -117.1147095,
"parent_id": 2
},
{
"id": 187,
"name": "Rush University Medical Center Program",
"specialty": "Anesthesiology",
"location": " Chicago, IL 60612",
"latitude": 41.8816606,
"longitude": -87.6926257,
"parent_id": 2
},
{
"id": 188,
"name": "Rutgers New Jersey Medical School Program",
"specialty": "Anesthesiology",
"location": " Newark, NJ 07103",
"latitude": 40.7383636,
"longitude": -74.197388,
"parent_id": 2
},
{
"id": 189,
"name": "Rutgers Robert Wood Johnson Medical School Program",
"specialty": "Anesthesiology",
"location": " New Brunswick, NJ 08901",
"latitude": 40.4861552,
"longitude": -74.45185,
"parent_id": 2
},
{
"id": 190,
"name": "San Antonio Uniformed Services Health Education Consortium Program",
"specialty": "Anesthesiology",
"location": " Fort Sam Houston, TX 78234",
"latitude": 29.4569597,
"longitude": -98.4458421,
"parent_id": 2
},
{
"id": 191,
"name": "Sidney Kimmel Medical College at Thomas Jefferson University/TJUH Program",
"specialty": "Anesthesiology",
"location": " Philadelphia, PA 19107",
"latitude": 39.9559288,
"longitude": -75.1574567,
"parent_id": 2
},
{
"id": 192,
"name": "St Barnabas Medical Center Program",
"specialty": "Anesthesiology",
"location": " Livingston, NJ 07039",
"latitude": 40.7862871,
"longitude": -74.3300842,
"parent_id": 2
},
{
"id": 193,
"name": "St Elizabeth's Medical Center Program",
"specialty": "Anesthesiology",
"location": " Boston, MA 02135",
"latitude": 42.3463503,
"longitude": -71.1626756,
"parent_id": 2
},
{
"id": 194,
"name": "St Joseph's University Medical Center Program",
"specialty": "Anesthesiology",
"location": " Paterson, NJ 07503",
"latitude": 40.8955467,
"longitude": -74.156292,
"parent_id": 2
},
{
"id": 195,
"name": "St Louis University School of Medicine Program",
"specialty": "Anesthesiology",
"location": " St. Louis, MO 63110",
"latitude": 38.6212468,
"longitude": -90.2526163,
"parent_id": 2
},
{
"id": 196,
"name": "Stanford Health Care-Sponsored Stanford University Program",
"specialty": "Anesthesiology",
"location": " Stanford, CA 94305",
"latitude": 37.4135757,
"longitude": -122.1689284,
"parent_id": 2
},
{
"id": 197,
"name": "Still OPTI/Northeast Regional Medical Center Program",
"specialty": "Anesthesiology",
"location": " Kirksville, MO 63501",
"latitude": 40.19475389999999,
"longitude": -92.5832496,
"parent_id": 2
},
{
"id": 198,
"name": "Stony Brook Medicine/University Hospital Program",
"specialty": "Anesthesiology",
"location": " Stony Brook, NY 11794",
"latitude": 40.9132244,
"longitude": -73.1261091,
"parent_id": 2
},
{
"id": 199,
"name": "Sunrise Health GME Consortium Program",
"specialty": "Anesthesiology",
"location": " Las Vegas, NV 89128",
"latitude": 36.1988542,
"longitude": -115.2659777,
"parent_id": 2
},
{
"id": 200,
"name": "SUNY Health Science Center at Brooklyn Program",
"specialty": "Anesthesiology",
"location": " Brooklyn, NY 11203",
"latitude": 40.6515882,
"longitude": -73.93304289999999,
"parent_id": 2
},
{
"id": 201,
"name": "SUNY Upstate Medical University Program",
"specialty": "Anesthesiology",
"location": " Syracuse, NY 13210",
"latitude": 43.0347064,
"longitude": -76.1261969,
"parent_id": 2
},
{
"id": 202,
"name": "Temple University Hospital Program",
"specialty": "Anesthesiology",
"location": " Philadelphia, PA 19140",
"latitude": 40.012545,
"longitude": -75.14870069999999,
"parent_id": 2
},
{
"id": 203,
"name": "Texas A&M College of Medicine-Scott and White Medical Center (Temple) Program",
"specialty": "Anesthesiology",
"location": " Temple, TX 76508",
"latitude": 31.0776033,
"longitude": -97.3639982,
"parent_id": 2
},
{
"id": 204,
"name": "Texas Tech University Health Sciences Center at Lubbock Program",
"specialty": "Anesthesiology",
"location": " Lubbock, TX 79430",
"latitude": 33.5869836,
"longitude": -101.899153,
"parent_id": 2
},
{
"id": 205,
"name": "Tufts Medical Center Program",
"specialty": "Anesthesiology",
"location": " Boston, MA 02111",
"latitude": 42.3514653,
"longitude": -71.0601767,
"parent_id": 2
},
{
"id": 206,
"name": "Tulane University Program",
"specialty": "Anesthesiology",
"location": " New Orleans, LA 70112",
"latitude": 29.95957689999999,
"longitude": -90.0770127,
"parent_id": 2
},
{
"id": 207,
"name": "UCLA David Geffen School of Medicine/UCLA Medical Center Program",
"specialty": "Anesthesiology",
"location": " Los Angeles, CA 90095",
"latitude": 34.070264,
"longitude": -118.4440562,
"parent_id": 2
},
{
"id": 208,
"name": "UMMS-Baystate Program",
"specialty": "Anesthesiology",
"location": " Springfield, MA 01199",
"latitude": 42.1208719,
"longitude": -72.6029199,
"parent_id": 2
},
{
"id": 209,
"name": "University at Buffalo Program",
"specialty": "Anesthesiology",
"location": " Buffalo, NY 14203",
"latitude": 42.8667771,
"longitude": -78.8750644,
"parent_id": 2
},
{
"id": 210,
"name": "University of Alabama Medical Center Program",
"specialty": "Anesthesiology",
"location": " Birmingham, AL 35249",
"latitude": 33.5123813,
"longitude": -86.8956738,
"parent_id": 2
},
{
"id": 211,
"name": "University of Arizona College of Medicine-Tucson Program",
"specialty": "Anesthesiology",
"location": " Tucson, AZ 85724",
"latitude": 32.2402988,
"longitude": -110.9454478,
"parent_id": 2
},
{
"id": 212,
"name": "University of Arkansas for Medical Sciences Program",
"specialty": "Anesthesiology",
"location": " Little Rock, AR 72205",
"latitude": 34.7486563,
"longitude": -92.3542193,
"parent_id": 2
},
{
"id": 213,
"name": "University of California (Irvine) Program",
"specialty": "Anesthesiology",
"location": " Orange, CA 92868",
"latitude": 33.78659,
"longitude": -117.8750976,
"parent_id": 2
},
{
"id": 214,
"name": "University of California (San Diego) Medical Center Program",
"specialty": "Anesthesiology",
"location": " San Diego, CA 92103",
"latitude": 32.749789,
"longitude": -117.1676501,
"parent_id": 2
},
{
"id": 215,
"name": "University of California (San Francisco) Program",
"specialty": "Anesthesiology",
"location": " San Francisco, CA 94143",
"latitude": 37.7642093,
"longitude": -122.4571623,
"parent_id": 2
},
{
"id": 216,
"name": "University of California Davis Health Program",
"specialty": "Anesthesiology",
"location": " Sacramento, CA 95817",
"latitude": 38.5500434,
"longitude": -121.4599012,
"parent_id": 2
},
{
"id": 217,
"name": "University of Central Florida/HCA GME Consortium Program",
"specialty": "Anesthesiology",
"location": " Ocala, FL 34471",
"latitude": 29.1571921,
"longitude": -82.1223977,
"parent_id": 2
},
{
"id": 218,
"name": "University of Chicago Program",
"specialty": "Anesthesiology",
"location": " Chicago, IL 60637",
"latitude": 41.7805099,
"longitude": -87.603826,
"parent_id": 2
},
{
"id": 219,
"name": "University of Cincinnati Medical Center/College of Medicine Program",
"specialty": "Anesthesiology",
"location": " Cincinnati, OH 45267",
"latitude": 39.1367664,
"longitude": -84.50229879999999,
"parent_id": 2
},
{
"id": 220,
"name": "University of Colorado Program",
"specialty": "Anesthesiology",
"location": " Aurora, CO 80045",
"latitude": 39.7503186,
"longitude": -104.8367063,
"parent_id": 2
},
{
"id": 221,
"name": "University of Connecticut Program",
"specialty": "Anesthesiology",
"location": " Farmington, CT 06030",
"latitude": 41.7324663,
"longitude": -72.8072342,
"parent_id": 2
},
{
"id": 222,
"name": "University of Florida College of Medicine Jacksonville Program",
"specialty": "Anesthesiology",
"location": " Jacksonville, FL 32209",
"latitude": 30.36173479999999,
"longitude": -81.69663059999999,
"parent_id": 2
},
{
"id": 223,
"name": "University of Florida Program",
"specialty": "Anesthesiology",
"location": " Gainesville, FL 32610",
"latitude": 29.6389921,
"longitude": -82.3430269,
"parent_id": 2
},
{
"id": 224,
"name": "University of Illinois College of Medicine at Chicago Program",
"specialty": "Anesthesiology",
"location": " Chicago, IL 60612",
"latitude": 41.8816606,
"longitude": -87.6926257,
"parent_id": 2
},
{
"id": 225,
"name": "University of Iowa Hospitals and Clinics Program",
"specialty": "Anesthesiology",
"location": " Iowa City, IA 52242",
"latitude": 41.659363,
"longitude": -91.54870989999999,
"parent_id": 2
},
{
"id": 226,
"name": "University of Kansas (Wichita) Program",
"specialty": "Anesthesiology",
"location": " Wichita, KS 67214",
"latitude": 37.70405239999999,
"longitude": -97.3138554,
"parent_id": 2
},
{
"id": 227,
"name": "University of Kansas School of Medicine Program",
"specialty": "Anesthesiology",
"location": " Kansas City, KS 66160",
"latitude": 39.06,
"longitude": -94.61,
"parent_id": 2
},
{
"id": 228,
"name": "University of Kentucky College of Medicine Program",
"specialty": "Anesthesiology",
"location": " Lexington, KY 40536",
"latitude": 38.0328237,
"longitude": -84.5067424,
"parent_id": 2
},
{
"id": 229,
"name": "University of Louisville School of Medicine Program",
"specialty": "Anesthesiology",
"location": " Louisville, KY 40202",
"latitude": 38.25569280000001,
"longitude": -85.751283,
"parent_id": 2
},
{
"id": 230,
"name": "University of Maryland Program",
"specialty": "Anesthesiology",
"location": " Baltimore, MD 21201",
"latitude": 39.2963369,
"longitude": -76.62105389999999,
"parent_id": 2
},
{
"id": 231,
"name": "University of Massachusetts Program",
"specialty": "Anesthesiology",
"location": " Worcester, MA 01655",
"latitude": 42.27174429999999,
"longitude": -71.7588217,
"parent_id": 2
},
{
"id": 232,
"name": "University of Michigan Health System Program",
"specialty": "Anesthesiology",
"location": " Ann Arbor, MI 48109",
"latitude": 42.3053253,
"longitude": -83.6694169,
"parent_id": 2
},
{
"id": 233,
"name": "University of Minnesota Program",
"specialty": "Anesthesiology",
"location": " Minneapolis, MN 55455",
"latitude": 44.97415609999999,
"longitude": -93.2342,
"parent_id": 2
},
{
"id": 234,
"name": "University of Mississippi Medical Center Program",
"specialty": "Anesthesiology",
"location": " Jackson, MS 39216",
"latitude": 32.3361632,
"longitude": -90.15652089999999,
"parent_id": 2
},
{
"id": 235,
"name": "University of Missouri-Columbia Program",
"specialty": "Anesthesiology",
"location": " Columbia, MO 65212",
"latitude": 38.9385874,
"longitude": -92.32801649999999,
"parent_id": 2
},
{
"id": 236,
"name": "University of Missouri-Kansas City School of Medicine Program",
"specialty": "Anesthesiology",
"location": " Kansas City, MO 64111",
"latitude": 39.0587452,
"longitude": -94.5985613,
"parent_id": 2
},
{
"id": 237,
"name": "University of Nebraska Medical Center College of Medicine Program",
"specialty": "Anesthesiology",
"location": " Omaha, NE 68198",
"latitude": 41.25525409999999,
"longitude": -95.97962249999999,
"parent_id": 2
},
{
"id": 238,
"name": "University of New Mexico School of Medicine Program",
"specialty": "Anesthesiology",
"location": " Albuquerque, NM 87131",
"latitude": 35.09,
"longitude": -106.62,
"parent_id": 2
},
{
"id": 239,
"name": "University of North Carolina Hospitals Program",
"specialty": "Anesthesiology",
"location": " Chapel Hill, NC 27599",
"latitude": 35.905249,
"longitude": -79.0581498,
"parent_id": 2
},
{
"id": 240,
"name": "University of Oklahoma Health Sciences Center Program",
"specialty": "Anesthesiology",
"location": " Oklahoma City, OK 73104",
"latitude": 35.4718556,
"longitude": -97.50577369999999,
"parent_id": 2
},
{
"id": 241,
"name": "University of Pennsylvania Health System Program",
"specialty": "Anesthesiology",
"location": " Philadelphia, PA 19104",
"latitude": 39.9583587,
"longitude": -75.1953934,
"parent_id": 2
},
{
"id": 242,
"name": "University of Puerto Rico Program",
"specialty": "Anesthesiology",
"location": " San Juan, PR 00936",
"latitude": 18.466224,
"longitude": -66.1057244,
"parent_id": 2
},
{
"id": 243,
"name": "University of Rochester Program",
"specialty": "Anesthesiology",
"location": " Rochester, NY 14642",
"latitude": 43.12247660000001,
"longitude": -77.62425739999999,
"parent_id": 2
},
{
"id": 244,
"name": "University of Southern California/LAC+USC Medical Center Program",
"specialty": "Anesthesiology",
"location": " Los Angeles, CA 90033",
"latitude": 34.0502898,
"longitude": -118.2117257,
"parent_id": 2
},
{
"id": 245,
"name": "University of Tennessee Medical Center at Knoxville Program",
"specialty": "Anesthesiology",
"location": " Knoxville, TN 37920",
"latitude": 35.9113041,
"longitude": -83.8685072,
"parent_id": 2
},
{
"id": 246,
"name": "University of Texas Health Science Center at Houston Program",
"specialty": "Anesthesiology",
"location": " Houston, TX 77030",
"latitude": 29.7050857,
"longitude": -95.40180869999999,
"parent_id": 2
},
{
"id": 247,
"name": "University of Texas Health Science Center San Antonio Joe and Teresa Lozano Long School of Medicine Program",
"specialty": "Anesthesiology",
"location": " San Antonio, TX 78229",
"latitude": 29.5060908,
"longitude": -98.577596,
"parent_id": 2
},
{
"id": 248,
"name": "University of Texas Medical Branch Hospitals Program",
"specialty": "Anesthesiology",
"location": " Galveston, TX 77555",
"latitude": 29.3106102,
"longitude": -94.77724930000001,
"parent_id": 2
},
{
"id": 249,
"name": "University of Texas Southwestern Medical School Program",
"specialty": "Anesthesiology",
"location": " Dallas, TX 75390",
"latitude": 32.8113367,
"longitude": -96.8397899,
"parent_id": 2
},
{
"id": 250,
"name": "University of Toledo Program",
"specialty": "Anesthesiology",
"location": " Toledo, OH 43614",
"latitude": 41.5993157,
"longitude": -83.6295222,
"parent_id": 2
},
{
"id": 251,
"name": "University of Utah Program",
"specialty": "Anesthesiology",
"location": " Salt Lake City, UT 84132",
"latitude": 40.7704811,
"longitude": -111.8367368,
"parent_id": 2
},
{
"id": 252,
"name": "University of Vermont Medical Center Program",
"specialty": "Anesthesiology",
"location": " Burlington, VT 05401",
"latitude": 44.4758442,
"longitude": -73.212121,
"parent_id": 2
},
{
"id": 253,
"name": "University of Virginia Medical Center Program",
"specialty": "Anesthesiology",
"location": " Charlottesville, VA 22908",
"latitude": 38.031942,
"longitude": -78.49858499999999,
"parent_id": 2
},
{
"id": 254,
"name": "University of Washington Program",
"specialty": "Anesthesiology",
"location": " Seattle, WA 98195",
"latitude": 47.6508882,
"longitude": -122.3084023,
"parent_id": 2
},
{
"id": 255,
"name": "University of Wisconsin Hospitals and Clinics Program",
"specialty": "Anesthesiology",
"location": " Madison, WI 53792",
"latitude": 43.0772547,
"longitude": -89.430773,
"parent_id": 2
},
{
"id": 256,
"name": "UPMC Medical Education Program",
"specialty": "Anesthesiology",
"location": " Pittsburgh, PA 15213",
"latitude": 40.4379259,
"longitude": -79.9556424,
"parent_id": 2
},
{
"id": 257,
"name": "UPMC Pinnacle Lititz Program",
"specialty": "Anesthesiology",
"location": " Lititz, PA 17543",
"latitude": 40.1573169,
"longitude": -76.3069014,
"parent_id": 2
},
{
"id": 258,
"name": "Vanderbilt University Medical Center Program",
"specialty": "Anesthesiology",
"location": " Nashville, TN 37232",
"latitude": 36.1426398,
"longitude": -86.8001068,
"parent_id": 2
},
{
"id": 259,
"name": "Virginia Commonwealth University Health System Program",
"specialty": "Anesthesiology",
"location": " Richmond, VA 23298",
"latitude": 37.5433009,
"longitude": -77.4293184,
"parent_id": 2
},
{
"id": 260,
"name": "Virginia Mason Medical Center Program",
"specialty": "Anesthesiology",
"location": " Seattle, WA 98111",
"latitude": 47.60993370000001,
"longitude": -122.3399892,
"parent_id": 2
},
{
"id": 261,
"name": "Wake Forest University School of Medicine Program",
"specialty": "Anesthesiology",
"location": " Winston-Salem, NC 27157",
"latitude": 36.0906568,
"longitude": -80.27153849999999,
"parent_id": 2
},
{
"id": 262,
"name": "Washington University/B-JH/SLCH Consortium Program",
"specialty": "Anesthesiology",
"location": " St Louis, MO 63110",
"latitude": 38.6212468,
"longitude": -90.2526163,
"parent_id": 2
},
{
"id": 263,
"name": "Wayne State University School of Medicine Program",
"specialty": "Anesthesiology",
"location": " Pontiac, MI 48341",
"latitude": 42.624141,
"longitude": -83.2987576,
"parent_id": 2
},
{
"id": 264,
"name": "West Virginia University Program",
"specialty": "Anesthesiology",
"location": " Morgantown, WV 26506",
"latitude": 39.654181,
"longitude": -79.9594886,
"parent_id": 2
},
{
"id": 265,
"name": "Westchester Medical Center Program",
"specialty": "Anesthesiology",
"location": " Valhalla, NY 10595",
"latitude": 41.085128,
"longitude": -73.7772032,
"parent_id": 2
},
{
"id": 266,
"name": "Yale-New Haven Medical Center Program",
"specialty": "Anesthesiology",
"location": " New Haven, CT 06510",
"latitude": 41.3052226,
"longitude": -72.92686259999999,
"parent_id": 2
},
{
"id": 267,
"name": "Zucker School of Medicine at Hofstra/Northwell Program",
"specialty": "Anesthesiology",
"location": " Manhasset, NY 11030",
"latitude": 40.7960005,
"longitude": -73.6830521,
"parent_id": 2
},
{
"id": 268,
"name": "Baylor College of Medicine Program",
"specialty": "Child Neurology",
"location": "Houston, TX 77030",
"latitude": 29.7050857,
"longitude": -95.40180869999999,
"parent_id": 3
},
{
"id": 269,
"name": "Boston University Medical Center Program",
"specialty": "Child Neurology",
"location": "Boston, MA 02118",
"latitude": 42.3377967,
"longitude": -71.0705763,
"parent_id": 3
},
{
"id": 270,
"name": "Case Western Reserve University/University Hospitals Cleveland Medical Center Program",
"specialty": "Child Neurology",
"location": "Cleveland, OH 44106",
"latitude": 41.5091257,
"longitude": -81.6089873,
"parent_id": 3
},
{
"id": 271,
"name": "Children's Hospital of Los Angeles Program",
"specialty": "Child Neurology",
"location": "Los Angeles, CA 90027",
"latitude": 34.1220545,
"longitude": -118.2935891,
"parent_id": 3
},
{
"id": 272,
"name": "Children's Hospital of Philadelphia Program",
"specialty": "Child Neurology",
"location": "Philadelphia, PA 19104",
"latitude": 39.9583587,
"longitude": -75.1953934,
"parent_id": 3
},
{
"id": 273,
"name": "Children's Hospital/Beth Israel Deaconess Medical Center/Harvard Medical School Program",
"specialty": "Child Neurology",
"location": "Boston, MA 02115",
"latitude": 42.339904,
"longitude": -71.0898892,
"parent_id": 3
},
{
"id": 274,
"name": "Children's Mercy Hospital/University of Kansas Medical Center Program",
"specialty": "Child Neurology",
"location": "Kansas City, MO 64108",
"latitude": 39.0795392,
"longitude": -94.5985613,
"parent_id": 3
},
{
"id": 275,
"name": "Children's National Medical Center/George Washington University Program",
"specialty": "Child Neurology",
"location": "Washington, DC 20010-2970",
"latitude": 38.9339046,
"longitude": -77.03053899999999,
"parent_id": 3
},
{
"id": 276,
"name": "Cincinnati Children's Hospital Medical Center Program",
"specialty": "Child Neurology",
"location": "Cincinnati, OH 45229",
"latitude": 39.1540971,
"longitude": -84.485507,
"parent_id": 3
},
{
"id": 277,
"name": "Cleveland Clinic Foundation Program",
"specialty": "Child Neurology",
"location": "Cleveland, OH 44195",
"latitude": 41.5034177,
"longitude": -81.6204806,
"parent_id": 3
},
{
"id": 278,
"name": "Detroit Medical Center/Wayne State University Program",
"specialty": "Child Neurology",
"location": "Detroit, MI 48201",
"latitude": 42.348495,
"longitude": -83.0602998,
"parent_id": 3
},
{
"id": 279,
"name": "Duke University Hospital Program",
"specialty": "Child Neurology",
"location": "Durham, NC 27710",
"latitude": 36.0038131,
"longitude": -78.9387241,
"parent_id": 3
},
{
"id": 280,
"name": "Emory University School of Medicine Program",
"specialty": "Child Neurology",
"location": "Atlanta, GA 30324",
"latitude": 33.81842,
"longitude": -84.3594626,
"parent_id": 3
},
{
"id": 281,
"name": "Indiana University School of Medicine Program",
"specialty": "Child Neurology",
"location": "Indianapolis, IN 46202",
"latitude": 39.7794767,
"longitude": -86.1700894,
"parent_id": 3
},
{
"id": 282,
"name": "Johns Hopkins University Program",
"specialty": "Child Neurology",
"location": "Baltimore, MD 21287",
"latitude": 39.2962372,
"longitude": -76.5928888,
"parent_id": 3
},
{
"id": 283,
"name": "Loma Linda University Health Education Consortium Program",
"specialty": "Child Neurology",
"location": "Loma Linda, CA 92354",
"latitude": 34.0484387,
"longitude": -117.2499749,
"parent_id": 3
},
{
"id": 284,
"name": "Louisiana State University Program",
"specialty": "Child Neurology",
"location": "New Orleans, LA 70118",
"latitude": 29.9450835,
"longitude": -90.1261013,
"parent_id": 3
},
{
"id": 285,
"name": "Massachusetts General Hospital Program",
"specialty": "Child Neurology",
"location": "Boston, MA 02114",
"latitude": 42.3652917,
"longitude": -71.0646337,
"parent_id": 3
},
{
"id": 286,
"name": "Mayo Clinic College of Medicine and Science (Jacksonville) Program",
"specialty": "Child Neurology",
"location": "Jacksonville, FL 32207",
"latitude": 30.2949194,
"longitude": -81.63638689999999,
"parent_id": 3
},
{
"id": 287,
"name": "Mayo Clinic College of Medicine and Science (Rochester) Program",
"specialty": "Child Neurology",
"location": "Rochester, MN 55905",
"latitude": 44.0557303,
"longitude": -92.5253639,
"parent_id": 3
},
{
"id": 288,
"name": "McGaw Medical Center of Northwestern University Program",
"specialty": "Child Neurology",
"location": "Chicago, IL 60611",
"latitude": 41.8925085,
"longitude": -87.61616959999999,
"parent_id": 3
},
{
"id": 289,
"name": "Medical College of Georgia Program",
"specialty": "Child Neurology",
"location": "Augusta, GA 30912",
"latitude": 33.4706725,
"longitude": -81.9861463,
"parent_id": 3
},
{
"id": 290,
"name": "Medical College of Wisconsin Affiliated Hospitals Program",
"specialty": "Child Neurology",
"location": "Milwaukee, WI 53201",
"latitude": 43.03,
"longitude": -87.92,
"parent_id": 3
},
{
"id": 291,
"name": "Medical University of South Carolina Program",
"specialty": "Child Neurology",
"location": "Charleston, SC 29425",
"latitude": 32.785895,
"longitude": -79.94794960000002,
"parent_id": 3
},
{
"id": 292,
"name": "Montefiore Medical Center/Albert Einstein College of Medicine Program",
"specialty": "Child Neurology",
"location": "Bronx, NY 10461",
"latitude": 40.8476284,
"longitude": -73.8360251,
"parent_id": 3
},
{
"id": 293,
"name": "National Capital Consortium Program",
"specialty": "Child Neurology",
"location": "Bethesda, MD 20889-5600",
"latitude": 39.0083306,
"longitude": -77.09637599999999,
"parent_id": 3
},
{
"id": 294,
"name": "Nationwide Children's Hospital/Ohio State University Program",
"specialty": "Child Neurology",
"location": "Columbus, OH 43205",
"latitude": 39.9576567,
"longitude": -82.9662859,
"parent_id": 3
},
{
"id": 295,
"name": "New York Presbyterian Hospital (Columbia Campus) Program",
"specialty": "Child Neurology",
"location": "New York, NY 10032",
"latitude": 40.8409822,
"longitude": -73.9447994,
"parent_id": 3
},
{
"id": 296,
"name": "New York Presbyterian Hospital (Cornell Campus) Program",
"specialty": "Child Neurology",
"location": "New York, NY 10065",
"latitude": 40.7645239,
"longitude": -73.96243270000001,
"parent_id": 3
},
{
"id": 297,
"name": "New York University School of Medicine Program",
"specialty": "Child Neurology",
"location": "New York, NY 10016",
"latitude": 40.74727,
"longitude": -73.9800645,
"parent_id": 3
},
{
"id": 298,
"name": "Oregon Health & Science University Program",
"specialty": "Child Neurology",
"location": "Portland, OR 97239",
"latitude": 45.4874111,
"longitude": -122.6875541,
"parent_id": 3
},
{
"id": 299,
"name": "Phoenix Children's Hospital Program",
"specialty": "Child Neurology",
"location": "Phoenix, AZ 85016",
"latitude": 33.5106684,
"longitude": -112.029752,
"parent_id": 3
},
{
"id": 300,
"name": "Rutgers New Jersey Medical School Program",
"specialty": "Child Neurology",
"location": "Newark, NJ 07101",
"latitude": 40.7305359,
"longitude": -74.1730726,
"parent_id": 3
},
{
"id": 301,
"name": "Sidney Kimmel Medical College at Thomas Jefferson University/DuPont Hospital for Children Program",
"specialty": "Child Neurology",
"location": "Wilmington, DE 19803",
"latitude": 39.7961255,
"longitude": -75.5393155,
"parent_id": 3
},
{
"id": 302,
"name": "St Christopher's Hospital for Children Program",
"specialty": "Child Neurology",
"location": "Philadelphia, PA 19134",
"latitude": 39.9863531,
"longitude": -75.1019942,
"parent_id": 3
},
{
"id": 303,
"name": "St Louis University School of Medicine Program",
"specialty": "Child Neurology",
"location": "St. Louis, MO 63104",
"latitude": 38.6160491,
"longitude": -90.2291565,
"parent_id": 3
},
{
"id": 304,
"name": "Stanford Health Care-Sponsored Stanford University Program",
"specialty": "Child Neurology",
"location": "Palo Alto, CA 94304-1510",
"latitude": 37.4156453,
"longitude": -122.1494801,
"parent_id": 3
},
{
"id": 305,
"name": "Stony Brook Medicine/University Hospital Program",
"specialty": "Child Neurology",
"location": "Stony Brook, NY 11794-8121",
"latitude": 40.9088733,
"longitude": -73.1149015,
"parent_id": 3
},
{
"id": 306,
"name": "SUNY Health Science Center at Brooklyn Program",
"specialty": "Child Neurology",
"location": "Brooklyn, NY 11203",
"latitude": 40.6515882,
"longitude": -73.93304289999999,
"parent_id": 3
},
{
"id": 307,
"name": "Tufts Medical Center Program",
"specialty": "Child Neurology",
"location": "Boston, MA 02111",
"latitude": 42.3514653,
"longitude": -71.0601767,
"parent_id": 3
},
{
"id": 308,
"name": "UCLA David Geffen School of Medicine/UCLA Medical Center Program",
"specialty": "Child Neurology",
"location": "Los Angeles, CA 90095",
"latitude": 34.070264,
"longitude": -118.4440562,
"parent_id": 3
},
{
"id": 309,
"name": "University at Buffalo Program",
"specialty": "Child Neurology",
"location": "Buffalo, NY 14202",
"latitude": 42.8943161,
"longitude": -78.8736493,
"parent_id": 3
},
{
"id": 310,
"name": "University of Alabama Medical Center Program",
"specialty": "Child Neurology",
"location": "Birmingham, AL 35233",
"latitude": 33.5118197,
"longitude": -86.8011326,
"parent_id": 3
},
{
"id": 311,
"name": "University of Arkansas for Medical Sciences Program",
"specialty": "Child Neurology",
"location": "Little Rock, AR 72202",
"latitude": 34.7359274,
"longitude": -92.2975183,
"parent_id": 3
},
{
"id": 312,
"name": "University of California (Irvine) Program",
"specialty": "Child Neurology",
"location": "Orange, CA 92868-4482",
"latitude": 33.78659,
"longitude": -117.8750976,
"parent_id": 3
},
{
"id": 313,
"name": "University of California (San Diego) Medical Center Program",
"specialty": "Child Neurology",
"location": "La Jolla, CA 92093-0935",
"latitude": 32.88435520000001,
"longitude": -117.2338066,
"parent_id": 3
},
{
"id": 314,
"name": "University of California (San Francisco) Program",
"specialty": "Child Neurology",
"location": "San Francisco, CA 94143-0114",
"latitude": 37.7642093,
"longitude": -122.4571623,
"parent_id": 3
},
{
"id": 315,
"name": "University of Chicago Program",
"specialty": "Child Neurology",
"location": "Chicago, IL 60637",
"latitude": 41.7805099,
"longitude": -87.603826,
"parent_id": 3
},
{
"id": 316,
"name": "University of Colorado Program",
"specialty": "Child Neurology",
"location": "Aurora, CO 80045",
"latitude": 39.7503186,
"longitude": -104.8367063,
"parent_id": 3
},
{
"id": 317,
"name": "University of Florida College of Medicine Program",
"specialty": "Child Neurology",
"location": "Gainesville, FL 32610-0296",
"latitude": 29.6389921,
"longitude": -82.3430269,
"parent_id": 3
},
{
"id": 318,
"name": "University of Iowa Hospitals and Clinics Program",
"specialty": "Child Neurology",
"location": "Iowa City, IA 52242",
"latitude": 41.659363,
"longitude": -91.54870989999999,
"parent_id": 3
},
{
"id": 319,
"name": "University of Kentucky College of Medicine Program",
"specialty": "Child Neurology",
"location": "Lexington, KY 40536",
"latitude": 38.0328237,
"longitude": -84.5067424,
"parent_id": 3
},
{
"id": 320,
"name": "University of Louisville School of Medicine Program",
"specialty": "Child Neurology",
"location": "Louisville, KY 40292",
"latitude": 38.21692609999999,
"longitude": -85.7624992,
"parent_id": 3
},
{
"id": 321,
"name": "University of Michigan Health System Program",
"specialty": "Child Neurology",
"location": "Ann Arbor, MI 48109-5646",
"latitude": 42.3053253,
"longitude": -83.6694169,
"parent_id": 3
},
{
"id": 322,
"name": "University of Mississippi Medical Center Program",
"specialty": "Child Neurology",
"location": "Jackson, MS 39216",
"latitude": 32.3361632,
"longitude": -90.15652089999999,
"parent_id": 3
},
{
"id": 323,
"name": "University of New Mexico School of Medicine Program",
"specialty": "Child Neurology",
"location": "Albuquerque, NM 87131-0001",
"latitude": 35.0843859,
"longitude": -106.650422,
"parent_id": 3
},
{
"id": 324,
"name": "University of North Carolina Hospitals Program",
"specialty": "Child Neurology",
"location": "Chapel Hill, NC 27599-7025",
"latitude": 35.905249,
"longitude": -79.0581498,
"parent_id": 3
},
{
"id": 325,
"name": "University of Puerto Rico Program",
"specialty": "Child Neurology",
"location": "San Juan, PR 00936",
"latitude": 18.466224,
"longitude": -66.1057244,
"parent_id": 3
},
{
"id": 326,
"name": "University of Rochester Program",
"specialty": "Child Neurology",
"location": "Rochester, NY 14642",
"latitude": 43.12247660000001,
"longitude": -77.62425739999999,
"parent_id": 3
},
{
"id": 327,
"name": "University of Tennessee Program",
"specialty": "Child Neurology",
"location": "Memphis, TN 38103",
"latitude": 35.1428747,
"longitude": -90.0523125,
"parent_id": 3
},
{
"id": 328,
"name": "University of Tennessee Program",
"specialty": "Child Neurology",
"location": "Memphis, TN 38105",
"latitude": 35.1516237,
"longitude": -90.0349866,
"parent_id": 3
},
{
"id": 329,
"name": "University of Texas Health Science Center at Houston Program",
"specialty": "Child Neurology",
"location": "Houston, TX 77030",
"latitude": 29.7050857,
"longitude": -95.40180869999999,
"parent_id": 3
},
{
"id": 330,
"name": "University of Texas Southwestern Medical School Program",
"specialty": "Child Neurology",
"location": "Dallas, TX 75390-9063",
"latitude": 32.815869,
"longitude": -96.84492469999999,
"parent_id": 3
},
{
"id": 331,
"name": "University of Utah Program",
"specialty": "Child Neurology",
"location": "Salt Lake City, UT 84113",
"latitude": 40.76020159999999,
"longitude": -111.8337558,
"parent_id": 3
},
{
"id": 332,
"name": "University of Virginia Medical Center Program",
"specialty": "Child Neurology",
"location": "Charlottesville, VA 22908",
"latitude": 38.031942,
"longitude": -78.49858499999999,
"parent_id": 3
},
{
"id": 333,
"name": "University of Washington Program",
"specialty": "Child Neurology",
"location": "Seattle, WA 98105",
"latitude": 47.6614244,
"longitude": -122.2683743,
"parent_id": 3
},
{
"id": 334,
"name": "UPMC Medical Education Program",
"specialty": "Child Neurology",
"location": "Pittsburgh, PA 15224",
"latitude": 40.467202,
"longitude": -79.94445259999999,
"parent_id": 3
},
{
"id": 335,
"name": "Vanderbilt University Medical Center Program",
"specialty": "Child Neurology",
"location": "Nashville, TN 37232",
"latitude": 36.1426398,
"longitude": -86.8001068,
"parent_id": 3
},
{
"id": 336,
"name": "Virginia Commonwealth University Health System Program",
"specialty": "Child Neurology",
"location": "Richmond, VA 23298",
"latitude": 37.5433009,
"longitude": -77.4293184,
"parent_id": 3
},
{
"id": 337,
"name": "Wake Forest University School of Medicine Program",
"specialty": "Child Neurology",
"location": "Winston-Salem, NC 27157",
"latitude": 36.0906568,
"longitude": -80.27153849999999,
"parent_id": 3
},
{
"id": 338,
"name": "Washington University/B-JH/SLCH Consortium Program",
"specialty": "Child Neurology",
"location": "St. Louis, MO 63110",
"latitude": 38.6212468,
"longitude": -90.2526163,
"parent_id": 3
},
{
"id": 339,
"name": "West Virginia University Program",
"specialty": "Child Neurology",
"location": "Morgantown, WV 26506",
"latitude": 39.654181,
"longitude": -79.9594886,
"parent_id": 3
},
{
"id": 340,
"name": "Yale-New Haven Hospital Program",
"specialty": "Child Neurology",
"location": "New Haven, CT 06510",
"latitude": 41.3052226,
"longitude": -72.92686259999999,
"parent_id": 3
},
{
"id": 341,
"name": "Zucker School of Medicine at Hofstra/Northwell at Cohen Children's Medical Center Program",
"specialty": "Child Neurology",
"location": "New Hyde Park, NY 11042",
"latitude": 40.7572158,
"longitude": -73.69629479999999,
"parent_id": 3
},
{
"id": 342,
"name": "Albany Medical Center Program",
"specialty": "Colon and Rectal Surgery",
"location": "Albany, NY 12208",
"latitude": 42.6547387,
"longitude": -73.7889689,
"parent_id": 4
},
{
"id": 343,
"name": "Allegheny Health Network Medical Education Consortium (SVH) Program",
"specialty": "Colon and Rectal Surgery",
"location": "Erie, PA 16544",
"latitude": 42.1111797,
"longitude": -80.078735,
"parent_id": 4
},
{
"id": 344,
"name": "Baylor University Medical Center Program",
"specialty": "Colon and Rectal Surgery",
"location": "Dallas, TX 75246",
"latitude": 32.7962048,
"longitude": -96.7694752,
"parent_id": 4
},
{
"id": 345,
"name": "Beaumont Health (Royal Oak) Program",
"specialty": "Colon and Rectal Surgery",
"location": "Royal Oak, MI 48073",
"latitude": 42.5183235,
"longitude": -83.15954,
"parent_id": 4
},
{
"id": 346,
"name": "Beth Israel Deaconess Medical Center Program",
"specialty": "Colon and Rectal Surgery",
"location": "Boston, MA 02215",
"latitude": 42.3476181,
"longitude": -71.1002881,
"parent_id": 4
},
{
"id": 347,
"name": "Brigham and Women's Hospital Program",
"specialty": "Colon and Rectal Surgery",
"location": "Boston, MA 02115",
"latitude": 42.339904,
"longitude": -71.0898892,
"parent_id": 4
},
{
"id": 348,
"name": "Brown University Program",
"specialty": "Colon and Rectal Surgery",
"location": "Providence, RI 02903",
"latitude": 41.816736,
"longitude": -71.4091563,
"parent_id": 4
},
{
"id": 349,
"name": "Case Western Reserve University/University Hospitals Cleveland Medical Center Program",
"specialty": "Colon and Rectal Surgery",
"location": "Cleveland, OH 44106",
"latitude": 41.5091257,
"longitude": -81.6089873,
"parent_id": 4
},
{
"id": 350,
"name": "Cedars-Sinai Medical Center Program",
"specialty": "Colon and Rectal Surgery",
"location": "Los Angeles, CA 90048",
"latitude": 34.0741548,
"longitude": -118.3724915,
"parent_id": 4
},
{
"id": 351,
"name": "Cleveland Clinic (Florida) Program",
"specialty": "Colon and Rectal Surgery",
"location": "Weston, FL 33331",
"latitude": 26.0621374,
"longitude": -80.3769999,
"parent_id": 4
},
{
"id": 352,
"name": "Cleveland Clinic Foundation Program",
"specialty": "Colon and Rectal Surgery",
"location": "Cleveland, OH 44195",
"latitude": 41.5034177,
"longitude": -81.6204806,
"parent_id": 4
},
{
"id": 353,
"name": "Cook County Health and Hospitals System Program",
"specialty": "Colon and Rectal Surgery",
"location": "Chicago, IL 60612",
"latitude": 41.8816606,
"longitude": -87.6926257,
"parent_id": 4
},
{
"id": 354,
"name": "Creighton University School of Medicine (Omaha) Program",
"specialty": "Colon and Rectal Surgery",
"location": "Omaha, NE 68114",
"latitude": 41.2674199,
"longitude": -96.0520363,
"parent_id": 4
},
{
"id": 355,
"name": "Florida Hospital Medical Center Program",
"specialty": "Colon and Rectal Surgery",
"location": "Orlando, FL 32804",
"latitude": 28.5747416,
"longitude": -81.3949264,
"parent_id": 4
},
{
"id": 356,
"name": "Grant Medical Center (OhioHealth) Program",
"specialty": "Colon and Rectal Surgery",
"location": "Columbus, OH 43215",
"latitude": 39.9602601,
"longitude": -83.0092803,
"parent_id": 4
},
{
"id": 357,
"name": "Greater Baltimore Medical Center Program",
"specialty": "Colon and Rectal Surgery",
"location": "Towson, MD 21204",
"latitude": 39.407567,
"longitude": -76.6354952,
"parent_id": 4
},
{
"id": 358,
"name": "Greenville Health System/University of South Carolina Program",
"specialty": "Colon and Rectal Surgery",
"location": "Greenville, SC 29605",
"latitude": 34.7671945,
"longitude": -82.3777335,
"parent_id": 4
},
{
"id": 359,
"name": "Henry Ford Hospital/Wayne State University Program",
"specialty": "Colon and Rectal Surgery",
"location": "Detroit, MI 48202",
"latitude": 42.3664506,
"longitude": -83.0737195,
"parent_id": 4
},
{
"id": 360,
"name": "Icahn School of Medicine at Mount Sinai Program",
"specialty": "Colon and Rectal Surgery",
"location": "New York, NY 10029",
"latitude": 40.7916407,
"longitude": -73.9447994,
"parent_id": 4
},
{
"id": 361,
"name": "Icahn School of Medicine at Mount Sinai/St Luke's-Roosevelt Hospital Center Program",
"specialty": "Colon and Rectal Surgery",
"location": "New York, NY 10019",
"latitude": 40.7686973,
"longitude": -73.9918181,
"parent_id": 4
},
{
"id": 362,
"name": "Indiana University School of Medicine Program",
"specialty": "Colon and Rectal Surgery",
"location": "Mooresville, IN 46158",
"latitude": 39.6128243,
"longitude": -86.37416,
"parent_id": 4
},
{
"id": 363,
"name": "Jackson Memorial Hospital/Jackson Health System Program",
"specialty": "Colon and Rectal Surgery",
"location": "Miami, FL 33136",
"latitude": 25.7870967,
"longitude": -80.2042436,
"parent_id": 4
},
{
"id": 364,
"name": "Lahey Clinic Program",
"specialty": "Colon and Rectal Surgery",
"location": "Burlington, MA 01805",
"latitude": 42.4883003,
"longitude": -71.2015991,
"parent_id": 4
},
{
"id": 365,
"name": "Lehigh Valley Health Network/University of South Florida College of Medicine Program",
"specialty": "Colon and Rectal Surgery",
"location": "Allentown, PA 18105-1806",
"latitude": 40.6,
"longitude": -75.47,
"parent_id": 4
},
{
"id": 366,
"name": "Louisiana State University (Shreveport) Program",
"specialty": "Colon and Rectal Surgery",
"location": "Shreveport, LA 71130",
"latitude": 32.49,
"longitude": -93.77,
"parent_id": 4
},
{
"id": 367,
"name": "Louisiana State University School of Medicine Program",
"specialty": "Colon and Rectal Surgery",
"location": "New Orleans, LA 70112",
"latitude": 29.9595769,
"longitude": -90.0770127,
"parent_id": 4
},
{
"id": 368,
"name": "Mayo Clinic College of Medicine and Science (Rochester) Program",
"specialty": "Colon and Rectal Surgery",
"location": "Rochester, MN 55905",
"latitude": 44.0557303,
"longitude": -92.5253639,
"parent_id": 4
},
{
"id": 369,
"name": "MedStar Heath/Washington Hospital Center Program",
"specialty": "Colon and Rectal Surgery",
"location": "Washington, DC 20010",
"latitude": 38.9339046,
"longitude": -77.030539,
"parent_id": 4
},
{
"id": 370,
"name": "Mount Carmel Health System Program",
"specialty": "Colon and Rectal Surgery",
"location": "Columbus, OH 43213",
"latitude": 39.9721714,
"longitude": -82.8694464,
"parent_id": 4
},
{
"id": 371,
"name": "Mountainstar HealthCare/Ogden Regional Medical Center/St Marks Hospital Program",
"specialty": "Colon and Rectal Surgery",
"location": "Salt Lake City, UT 84124",
"latitude": 40.6712875,
"longitude": -111.7912764,
"parent_id": 4
},
{
"id": 372,
"name": "New York Presbyterian Hospital (Cornell Campus) Program",
"specialty": "Colon and Rectal Surgery",
"location": "New York, NY 10065",
"latitude": 40.7645239,
"longitude": -73.9624327,
"parent_id": 4
},
{
"id": 373,
"name": "New York University School of Medicine Program",
"specialty": "Colon and Rectal Surgery",
"location": "New York, NY 10016",
"latitude": 40.74727,
"longitude": -73.9800645,
"parent_id": 4
},
{
"id": 374,
"name": "Northside Hospital Program",
"specialty": "Colon and Rectal Surgery",
"location": "Atlanta, GA 30342",
"latitude": 33.8856615,
"longitude": -84.3699767,
"parent_id": 4
},
{
"id": 375,
"name": "Ochsner Clinic Foundation Program",
"specialty": "Colon and Rectal Surgery",
"location": "New Orleans, LA 70121",
"latitude": 29.9595011,
"longitude": -90.1612029,
"parent_id": 4
},
{
"id": 376,
"name": "Ohio State University Hospital Program",
"specialty": "Colon and Rectal Surgery",
"location": "Columbus, OH 43210-1267",
"latitude": 39.9990626,
"longitude": -83.0173386,
"parent_id": 4
},
{
"id": 377,
"name": "Oregon Health & Science University Program",
"specialty": "Colon and Rectal Surgery",
"location": "Portland, OR 97239",
"latitude": 45.4874111,
"longitude": -122.6875541,
"parent_id": 4
},
{
"id": 378,
"name": "Orlando Health Program",
"specialty": "Colon and Rectal Surgery",
"location": "Orlando, FL 32806",
"latitude": 28.5085825,
"longitude": -81.3564411,
"parent_id": 4
},
{
"id": 379,
"name": "Penn State Milton S Hershey Medical Center Program",
"specialty": "Colon and Rectal Surgery",
"location": "Hershey, PA 17033",
"latitude": 40.2713328,
"longitude": -76.6297189,
"parent_id": 4
},
{
"id": 380,
"name": "Rutgers Robert Wood Johnson Medical School Program",
"specialty": "Colon and Rectal Surgery",
"location": "Edison, NJ 08820",
"latitude": 40.5757563,
"longitude": -74.3548452,
"parent_id": 4
},
{
"id": 381,
"name": "Sidney Kimmel Medical College at Thomas Jefferson University/TJUH Program",
"specialty": "Colon and Rectal Surgery",
"location": "Philadelphia, PA 19107",
"latitude": 39.9559288,
"longitude": -75.1574567,
"parent_id": 4
},
{
"id": 382,
"name": "Southern Illinois University Program",
"specialty": "Colon and Rectal Surgery",
"location": "Springfield, IL 62794-9638",
"latitude": 39.8,
"longitude": -89.64,
"parent_id": 4
},
{
"id": 383,
"name": "Spectrum Health/Michigan State University Program",
"specialty": "Colon and Rectal Surgery",
"location": "Grand Rapids, MI 49503",
"latitude": 42.9616689,
"longitude": -85.6588999,
"parent_id": 4
},
{
"id": 384,
"name": "St Francis Hospital and Medical Center Program",
"specialty": "Colon and Rectal Surgery",
"location": "Hartford, CT 06105",
"latitude": 41.7721061,
"longitude": -72.7038047,
"parent_id": 4
},
{
"id": 385,
"name": "St Joseph Mercy Ann Arbor Program",
"specialty": "Colon and Rectal Surgery",
"location": "Ann Arbor, MI 48106",
"latitude": 42.2721528,
"longitude": -83.7754758,
"parent_id": 4
},
{
"id": 386,
"name": "Stony Brook Medicine/Winthrop University Hospital Program",
"specialty": "Colon and Rectal Surgery",
"location": "Stony Brook, NY 11794-8191",
"latitude": 40.9123761,
"longitude": -73.1233889,
"parent_id": 4
},
{
"id": 387,
"name": "Strong Memorial Hospital of the University of Rochester Program",
"specialty": "Colon and Rectal Surgery",
"location": "Rochester, NY 14642",
"latitude": 43.1224766,
"longitude": -77.6242574,
"parent_id": 4
},
{
"id": 388,
"name": "Swedish Medical Center Program",
"specialty": "Colon and Rectal Surgery",
"location": "Seattle, WA 98104",
"latitude": 47.6015566,
"longitude": -122.3323351,
"parent_id": 4
},
{
"id": 389,
"name": "Texas Health Presbyterian Dallas Program",
"specialty": "Colon and Rectal Surgery",
"location": "Dallas, TX 75231",
"latitude": 32.8798071,
"longitude": -96.7547522,
"parent_id": 4
},
{
"id": 390,
"name": "University at Buffalo Program",
"specialty": "Colon and Rectal Surgery",
"location": "Buffalo, NY 14214",
"latitude": 42.9334868,
"longitude": -78.8439268,
"parent_id": 4
},
{
"id": 391,
"name": "University of California(Irvine) Medical Center Program",
"specialty": "Colon and Rectal Surgery",
"location": "Orange, CA 92868",
"latitude": 33.78659,
"longitude": -117.8750976,
"parent_id": 4
},
{
"id": 392,
"name": "University of Chicago Program",
"specialty": "Colon and Rectal Surgery",
"location": "Chicago, IL 60637",
"latitude": 41.7805099,
"longitude": -87.603826,
"parent_id": 4
},
{
"id": 393,
"name": "University of Louisville School of Medicine Program",
"specialty": "Colon and Rectal Surgery",
"location": "Louisville, KY 40202",
"latitude": 38.2556928,
"longitude": -85.751283,
"parent_id": 4
},
{
"id": 394,
"name": "University of Massachusetts Program",
"specialty": "Colon and Rectal Surgery",
"location": "Worcester, MA 01605",
"latitude": 42.279853,
"longitude": -71.7919027,
"parent_id": 4
},
{
"id": 395,
"name": "University of Minnesota Program",
"specialty": "Colon and Rectal Surgery",
"location": "Minneapolis, MN 55413",
"latitude": 44.9956414,
"longitude": -93.258095,
"parent_id": 4
},
{
"id": 396,
"name": "University of Pennsylvania Health System Program",
"specialty": "Colon and Rectal Surgery",
"location": "Philadelphia, PA 19104",
"latitude": 39.9583587,
"longitude": -75.1953934,
"parent_id": 4
},
{
"id": 397,
"name": "University of South Florida Morsani Program",
"specialty": "Colon and Rectal Surgery",
"location": "Tampa, FL 33606",
"latitude": 27.926156,
"longitude": -82.4563199,
"parent_id": 4
},
{
"id": 398,
"name": "University of Southern California/LAC+USC Medical Center Program",
"specialty": "Colon and Rectal Surgery",
"location": "Los Angeles, CA 90033",
"latitude": 34.0502898,
"longitude": -118.2117257,
"parent_id": 4
},
{
"id": 399,
"name": "University of Tennessee College of Medicine Chattanooga Program",
"specialty": "Colon and Rectal Surgery",
"location": "Chattanooga, TN 37403",
"latitude": 35.0496723,
"longitude": -85.2955242,
"parent_id": 4
},
{
"id": 400,
"name": "University of Texas Health Science Center at Houston Program",
"specialty": "Colon and Rectal Surgery",
"location": "Houston, TX 77030",
"latitude": 29.7050857,
"longitude": -95.4018087,
"parent_id": 4
},
{
"id": 401,
"name": "University of Wisconsin Hospitals and Clinics Program",
"specialty": "Colon and Rectal Surgery",
"location": "Madison, WI 53792-7375",
"latitude": 43.0772547,
"longitude": -89.430773,
"parent_id": 4
},
{
"id": 402,
"name": "Washington University/B-JH/SLCH Consortium Program",
"specialty": "Colon and Rectal Surgery",
"location": "St Louis, MO 63110",
"latitude": 38.6212468,
"longitude": -90.2526163,
"parent_id": 4
},
{
"id": 403,
"name": "Zucker School of Medicine at Hofstra/Northwell Program",
"specialty": "Colon and Rectal Surgery",
"location": "Great Neck, NY 11021",
"latitude": 40.7851185,
"longitude": -73.7271909,
"parent_id": 4
},
{
"id": 404,
"name": "Bay Area Corpus Christi Medical Center Program",
"specialty": "Dermatology",
"location": "McAllen, TX 78504",
"latitude": 26.2892001,
"longitude": -98.2322355,
"parent_id": 5
},
{
"id": 405,
"name": "Baylor College of Medicine Program",
"specialty": "Dermatology",
"location": "Houston, TX 77030",
"latitude": 29.7050857,
"longitude": -95.4018087,
"parent_id": 5
},
{
"id": 406,
"name": "Baylor University Medical Center Program",
"specialty": "Dermatology",
"location": "Dallas, TX 75246",
"latitude": 32.7962048,
"longitude": -96.7694752,
"parent_id": 5
},
{
"id": 407,
"name": "Beaumont Health (Farmington Hills) Program",
"specialty": "Dermatology",
"location": "Commerce Twp, MI 48382",
"latitude": 42.5928553,
"longitude": -83.517682,
"parent_id": 5
},
{
"id": 408,
"name": "Beaumont Health (Trenton) Program",
"specialty": "Dermatology",
"location": "Trenton, MI 48183",
"latitude": 42.1352293,
"longitude": -83.2291862,
"parent_id": 5
},
{
"id": 409,
"name": "Boston University Medical Center Program",
"specialty": "Dermatology",
"location": "Boston, MA 02118",
"latitude": 42.3377967,
"longitude": -71.0705763,
"parent_id": 5
},
{
"id": 410,
"name": "Broward Health Medical Center Program",
"specialty": "Dermatology",
"location": "Fort Lauderdale, FL 33316",
"latitude": 26.0977657,
"longitude": -80.1261093,
"parent_id": 5
},
{
"id": 411,
"name": "Brown University Program",
"specialty": "Dermatology",
"location": "Providence, RI 02903",
"latitude": 41.816736,
"longitude": -71.4091563,
"parent_id": 5
},
{
"id": 412,
"name": "Campbell University Program",
"specialty": "Dermatology",
"location": "Clinton, NC 28328",
"latitude": 34.9979453,
"longitude": -78.3233325,
"parent_id": 5
},
{
"id": 413,
"name": "Carilion Clinic-Virginia Tech Carilion School of Medicine Program",
"specialty": "Dermatology",
"location": "Roanoke, VA 24016",
"latitude": 37.2724943,
"longitude": -79.9556424,
"parent_id": 5
},
{
"id": 414,
"name": "Case Western Reserve University/University Hospitals Cleveland Medical Center Program",
"specialty": "Dermatology",
"location": "Cleveland, OH 44106",
"latitude": 41.5091257,
"longitude": -81.6089873,
"parent_id": 5
},
{
"id": 415,
"name": "Cleveland Clinic Foundation Program",
"specialty": "Dermatology",
"location": "Cleveland, OH 44195",
"latitude": 41.5034177,
"longitude": -81.6204806,
"parent_id": 5
},
{
"id": 416,
"name": "Cook County Health and Hospitals System Program",
"specialty": "Dermatology",
"location": "Chicago, IL 60612",
"latitude": 41.8816606,
"longitude": -87.6926257,
"parent_id": 5
},
{
"id": 417,
"name": "Cooper Medical School of Rowan University/Cooper University Hospital Program",
"specialty": "Dermatology",
"location": "Camden, NJ 08103",
"latitude": 39.937645,
"longitude": -75.1136721,
"parent_id": 5
},
{
"id": 418,
"name": "Duke University Hospital Program",
"specialty": "Dermatology",
"location": "Durham, NC 27710",
"latitude": 36.0038131,
"longitude": -78.9387241,
"parent_id": 5
},
{
"id": 419,
"name": "Eastern Virginia Medical School Program",
"specialty": "Dermatology",
"location": "Norfolk, VA 23507",
"latitude": 36.8674231,
"longitude": -76.3145188,
"parent_id": 5
},
{
"id": 420,
"name": "Emory University School of Medicine Program",
"specialty": "Dermatology",
"location": "Atlanta, GA 30322",
"latitude": 33.7980995,
"longitude": -84.3259367,
"parent_id": 5
},
{
"id": 421,
"name": "Florida State University College of Medicine Program",
"specialty": "Dermatology",
"location": "Tallahassee, FL 32308",
"latitude": 30.4805441,
"longitude": -84.2173403,
"parent_id": 5
},
{
"id": 422,
"name": "Geisinger Health System Program",
"specialty": "Dermatology",
"location": "Danville, PA 17822",
"latitude": 40.9675163,
"longitude": -76.6044444,
"parent_id": 5
},
{
"id": 423,
"name": "George Washington University School of Medicine Program",
"specialty": "Dermatology",
"location": "Washington, DC 20037",
"latitude": 38.9042365,
"longitude": -77.0521289,
"parent_id": 5
},
{
"id": 424,
"name": "Hackensack University Medical Center (Palisades) Program",
"specialty": "Dermatology",
"location": "North Bergen, NJ 07047",
"latitude": 40.8053731,
"longitude": -74.0241367,
"parent_id": 5
},
{
"id": 425,
"name": "HCA West Florida GME Consortium/Largo Medical Center Program",
"specialty": "Dermatology",
"location": "Largo, FL 33770",
"latitude": 27.9180298,
"longitude": -82.7940297,
"parent_id": 5
},
{
"id": 426,
"name": "HealthPartners Institute Program",
"specialty": "Dermatology",
"location": "St Louis Park, MN 55416",
"latitude": 44.9465193,
"longitude": -93.3439291,
"parent_id": 5
},
{
"id": 427,
"name": "Henry Ford Hospital/Wayne State University Program",
"specialty": "Dermatology",
"location": "Detroit, MI 48202",
"latitude": 42.3664506,
"longitude": -83.0737195,
"parent_id": 5
},
{
"id": 428,
"name": "Howard University Program",
"specialty": "Dermatology",
"location": "Washington, DC 20060",
"latitude": 38.9178427,
"longitude": -77.0218255,
"parent_id": 5
},
{
"id": 429,
"name": "Icahn School of Medicine at Mount Sinai Program",
"specialty": "Dermatology",
"location": "New York, NY 10029",
"latitude": 40.7916407,
"longitude": -73.9447994,
"parent_id": 5
},
{
"id": 430,
"name": "Indiana University School of Medicine Program",
"specialty": "Dermatology",
"location": "Indianapolis, IN 46202",
"latitude": 39.7794767,
"longitude": -86.1700894,
"parent_id": 5
},
{
"id": 431,
"name": "Jackson Memorial Hospital/Jackson Health System Program",
"specialty": "Dermatology",
"location": "Miami, FL 33101",
"latitude": 25.7783254,
"longitude": -80.1990136,
"parent_id": 5
},
{
"id": 432,
"name": "Johns Hopkins University Program",
"specialty": "Dermatology",
"location": "Baltimore, MD 21231",
"latitude": 39.287866,
"longitude": -76.5921665,
"parent_id": 5
},
{
"id": 433,
"name": "Kaiser Permanente Southern California (Los Angeles) Program",
"specialty": "Dermatology",
"location": "Los Angeles, CA 90027",
"latitude": 34.1220545,
"longitude": -118.2935891,
"parent_id": 5
},
{
"id": 434,
"name": "Kansas City University of Medicine & Biosciences-GME Consortium (KCU-GMEC)/Tri-County Program",
"specialty": "Dermatology",
"location": "Cuyahoga Falls, OH 44221",
"latitude": 41.1362185,
"longitude": -81.4828198,
"parent_id": 5
},
{
"id": 435,
"name": "Kansas City University of Medicine & Biosciences-GME Consortium (KCU-GME Consortium) Phoenix Program",
"specialty": "Dermatology",
"location": "Mesa, AZ 85206",
"latitude": 33.3951613,
"longitude": -111.7018452,
"parent_id": 5
},
{
"id": 436,
"name": "Kansas City University of Medicine & Biosciences-GME Consortium (KCU-GME Consortium)/ADCS-Orlando Program",
"specialty": "Dermatology",
"location": "Maitland, FL 32751",
"latitude": 28.6366753,
"longitude": -81.3674389,
"parent_id": 5
},
{
"id": 437,
"name": "Larkin Community Hospital Program",
"specialty": "Dermatology",
"location": "South Miami, FL 33143",
"latitude": 25.6993807,
"longitude": -80.2934522,
"parent_id": 5
},
{
"id": 438,
"name": "Lehigh Valley Health Network Program",
"specialty": "Dermatology",
"location": "Allentown, PA 18103",
"latitude": 40.5719198,
"longitude": -75.4927278,
"parent_id": 5
},
{
"id": 439,
"name": "Loma Linda University Health Education Consortium Program",
"specialty": "Dermatology",
"location": "Loma Linda, CA 92354",
"latitude": 34.0484387,
"longitude": -117.2499749,
"parent_id": 5
},
{
"id": 440,
"name": "Los Angeles County-Harbor-UCLA Medical Center Program",
"specialty": "Dermatology",
"location": "Torrance, CA 90509",
"latitude": 33.83,
"longitude": -118.33,
"parent_id": 5
},
{
"id": 441,
"name": "Louisiana State University Program",
"specialty": "Dermatology",
"location": "New Orleans, LA 70112",
"latitude": 29.9595769,
"longitude": -90.0770127,
"parent_id": 5
},
{
"id": 442,
"name": "Loyola University Medical Center Program",
"specialty": "Dermatology",
"location": "Maywood, IL 60153",
"latitude": 41.8791979,
"longitude": -87.8431155,
"parent_id": 5
},
{
"id": 443,
"name": "Marshfield Clinic Program",
"specialty": "Dermatology",
"location": "Marshfield, WI 54449",
"latitude": 44.6688524,
"longitude": -90.1717987,
"parent_id": 5
},
{
"id": 444,
"name": "Mary Hitchcock Memorial Hospital/Dartmouth-Hitchcock Program",
"specialty": "Dermatology",
"location": "Lebanon, NH 03756",
"latitude": 43.6760215,
"longitude": -72.2730994,
"parent_id": 5
},
{
"id": 445,
"name": "Massachusetts General Hospital/Beth Israel Deaconess Medical Center/Brigham and Women's Hosp Program",
"specialty": "Dermatology",
"location": "Boston, MA 02114",
"latitude": 42.3652917,
"longitude": -71.0646337,
"parent_id": 5
},
{
"id": 446,
"name": "Mayo Clinic College of Medicine and Science (Arizona) Program",
"specialty": "Dermatology",
"location": "Scottsdale, AZ 85259",
"latitude": 33.5910441,
"longitude": -111.7972384,
"parent_id": 5
},
{
"id": 447,
"name": "Mayo Clinic College of Medicine and Science (Jacksonville) Program",
"specialty": "Dermatology",
"location": "Jacksonville, FL 32224",
"latitude": 30.2606613,
"longitude": -81.460856,
"parent_id": 5
},
{
"id": 448,
"name": "Mayo Clinic College of Medicine and Science (Rochester) Program",
"specialty": "Dermatology",
"location": "Rochester, MN 55905",
"latitude": 44.0557303,
"longitude": -92.5253639,
"parent_id": 5
},
{
"id": 449,
"name": "McGaw Medical Center of Northwestern University Program",
"specialty": "Dermatology",
"location": "Chicago, IL 60611",
"latitude": 41.8925085,
"longitude": -87.6161696,
"parent_id": 5
},
{
"id": 450,
"name": "Medical City Weatherford Program",
"specialty": "Dermatology",
"location": "Weatherford, TX 76086",
"latitude": 32.7522671,
"longitude": -97.7905758,
"parent_id": 5
},
{
"id": 451,
"name": "Medical College of Georgia Program",
"specialty": "Dermatology",
"location": "Augusta, GA 30904",
"latitude": 33.4775837,
"longitude": -82.013465,
"parent_id": 5
},
{
"id": 452,
"name": "Medical College of Wisconsin Affiliated Hospitals Program",
"specialty": "Dermatology",
"location": "Milwaukee, WI 53226",
"latitude": 43.0513426,
"longitude": -88.0411993,
"parent_id": 5
},
{
"id": 453,
"name": "Medical University of South Carolina Program",
"specialty": "Dermatology",
"location": "Charleston, SC 29425",
"latitude": 32.785895,
"longitude": -79.9479496,
"parent_id": 5
},
{
"id": 454,
"name": "MedStar Heath/Washington Hospital Center Program",
"specialty": "Dermatology",
"location": "Washington, DC 20010",
"latitude": 38.9339046,
"longitude": -77.030539,
"parent_id": 5
},
{
"id": 455,
"name": "MetroHealth Medical Center/Case Western Reserve University Program",
"specialty": "Dermatology",
"location": "Cleveland, OH 44109",
"latitude": 41.4513221,
"longitude": -81.7021049,
"parent_id": 5
},
{
"id": 456,
"name": "Montefiore Medical Center/Albert Einstein College of Medicine Program",
"specialty": "Dermatology",
"location": "Bronx, NY 10467",
"latitude": 40.8723987,
"longitude": -73.8713099,
"parent_id": 5
},
{
"id": 457,
"name": "National Capital Consortium Program",
"specialty": "Dermatology",
"location": "Bethesda, MD 20889",
"latitude": 39.0083306,
"longitude": -77.096376,
"parent_id": 5
},
{
"id": 458,
"name": "Naval Medical Center (San Diego) Program",
"specialty": "Dermatology",
"location": "San Diego, CA 92134",
"latitude": 32.7240705,
"longitude": -117.1463285,
"parent_id": 5
},
{
"id": 459,
"name": "New York Medical College (Metropolitan) Program",
"specialty": "Dermatology",
"location": "New York City, NY 10029",
"latitude": 40.7916407,
"longitude": -73.9447994,
"parent_id": 5
},
{
"id": 460,
"name": "New York Presbyterian Hospital (Columbia Campus) Program",
"specialty": "Dermatology",
"location": "New York, NY 10032",
"latitude": 40.8409822,
"longitude": -73.9447994,
"parent_id": 5
},
{
"id": 461,
"name": "New York Presbyterian Hospital (Cornell Campus) Program",
"specialty": "Dermatology",
"location": "New York, NY 10021",
"latitude": 40.7700703,
"longitude": -73.9580246,
"parent_id": 5
},
{
"id": 462,
"name": "New York University School of Medicine Program",
"specialty": "Dermatology",
"location": "New York, NY 10016",
"latitude": 40.74727,
"longitude": -73.9800645,
"parent_id": 5
},
{
"id": 463,
"name": "Ohio State University Hospital Program",
"specialty": "Dermatology",
"location": "Gahanna, OH 43230",
"latitude": 40.0388765,
"longitude": -82.8748301,
"parent_id": 5
},
{
"id": 464,
"name": "OPTI West (Newport Beach) Program",
"specialty": "Dermatology",
"location": "Newport Beach, CA 92660",
"latitude": 33.6301328,
"longitude": -117.8721676,
"parent_id": 5
},
{
"id": 465,
"name": "Orange Park Medical Center Program",
"specialty": "Dermatology",
"location": "Orange Park, FL 32073",
"latitude": 30.1660736,
"longitude": -81.706484,
"parent_id": 5
},
{
"id": 466,
"name": "Oregon Health & Science University Program",
"specialty": "Dermatology",
"location": "Portland, OR 97239",
"latitude": 45.4874111,
"longitude": -122.6875541,
"parent_id": 5
},
{
"id": 467,
"name": "Penn State Milton S Hershey Medical Center Program",
"specialty": "Dermatology",
"location": "Hershey, PA 17033",
"latitude": 40.2713328,
"longitude": -76.6297189,
"parent_id": 5
},
{
"id": 468,
"name": "Riverside Methodist Hospitals (OhioHealth) Program",
"specialty": "Dermatology",
"location": "Columbus, OH 43214",
"latitude": 40.0480476,
"longitude": -83.025396,
"parent_id": 5
},
{
"id": 469,
"name": "Roger Williams Medical Center Program",
"specialty": "Dermatology",
"location": "Providence, RI 02908",
"latitude": 41.8380136,
"longitude": -71.4358733,
"parent_id": 5
},
{
"id": 470,
"name": "Rush University Medical Center Program",
"specialty": "Dermatology",
"location": "Chicago, IL 60612",
"latitude": 41.8816606,
"longitude": -87.6926257,
"parent_id": 5
},
{
"id": 471,
"name": "Rutgers Robert Wood Johnson Medical School Program",
"specialty": "Dermatology",
"location": "Somerset, NJ 08873",
"latitude": 40.497604,
"longitude": -74.4884868,
"parent_id": 5
},
{
"id": 472,
"name": "Samaritan Health Services - Corvallis Program",
"specialty": "Dermatology",
"location": "Salem, OR 97302",
"latitude": 44.9046074,
"longitude": -123.0826335,
"parent_id": 5
},
{
"id": 473,
"name": "San Antonio Uniformed Services Health Education Consortium Program",
"specialty": "Dermatology",
"location": "JBSA-Lackland, TX 78236",
"latitude": 29.3921564,
"longitude": -98.6174682,
"parent_id": 5
},
{
"id": 474,
"name": "Sidney Kimmel Medical College at Thomas Jefferson University/TJUH Program",
"specialty": "Dermatology",
"location": "Philadelphia, PA 19107",
"latitude": 39.9559288,
"longitude": -75.1574567,
"parent_id": 5
},
{
"id": 475,
"name": "Southern Illinois University Program",
"specialty": "Dermatology",
"location": "Springfield, IL 62794",
"latitude": 39.8,
"longitude": -89.64,
"parent_id": 5
},
{
"id": 476,
"name": "St John's Episcopal Hospital-South Shore Program",
"specialty": "Dermatology",
"location": "Far Rockaway, NY 11691",
"latitude": 40.6024346,
"longitude": -73.762495,
"parent_id": 5
},
{
"id": 477,
"name": "St Joseph Mercy Livingston Program",
"specialty": "Dermatology",
"location": "Ann Arbor, MI 48106",
"latitude": 42.2721528,
"longitude": -83.7754758,
"parent_id": 5
},
{
"id": 478,
"name": "St Louis University School of Medicine Program",
"specialty": "Dermatology",
"location": "St Louis, MO 63104",
"latitude": 38.6160491,
"longitude": -90.2291565,
"parent_id": 5
},
{
"id": 479,
"name": "Stanford Health Care-Sponsored Stanford University Program",
"specialty": "Dermatology",
"location": "Redwood City, CA 94063",
"latitude": 37.4852152,
"longitude": -122.2363548,
"parent_id": 5
},
{
"id": 480,
"name": "Still OPTI Program",
"specialty": "Dermatology",
"location": "Kirksville, MO 63501",
"latitude": 40.1947539,
"longitude": -92.5832496,
"parent_id": 5
},
{
"id": 481,
"name": "Stony Brook Medicine/University Hospital Program",
"specialty": "Dermatology",
"location": "Stony Brook, NY 11790",
"latitude": 40.8978388,
"longitude": -73.1054544,
"parent_id": 5
},
{
"id": 482,
"name": "SUNY Health Science Center at Brooklyn Program",
"specialty": "Dermatology",
"location": "Brooklyn, NY 11203",
"latitude": 40.6515882,
"longitude": -73.9330429,
"parent_id": 5
},
{
"id": 483,
"name": "Temple University Hospital Program",
"specialty": "Dermatology",
"location": "Philadelphia, PA 19140",
"latitude": 40.012545,
"longitude": -75.1487007,
"parent_id": 5
},
{
"id": 484,
"name": "Texas A&M College of Medicine-Scott and White Medical Center (Temple) Program",
"specialty": "Dermatology",
"location": "Temple, TX 76501",
"latitude": 31.082147,
"longitude": -97.2437105,
"parent_id": 5
},
{
"id": 485,
"name": "Texas Tech University Health Sciences Center at Lubbock Program",
"specialty": "Dermatology",
"location": "Lubbock, TX 79430",
"latitude": 33.5869836,
"longitude": -101.899153,
"parent_id": 5
},
{
"id": 486,
"name": "Tufts Medical Center Program",
"specialty": "Dermatology",
"location": "Boston, MA 02111",
"latitude": 42.3514653,
"longitude": -71.0601767,
"parent_id": 5
},
{
"id": 487,
"name": "Tulane University Program",
"specialty": "Dermatology",
"location": "New Orleans, LA 70112",
"latitude": 29.9595769,
"longitude": -90.0770127,
"parent_id": 5
},
{
"id": 488,
"name": "UCLA David Geffen School of Medicine/UCLA Medical Center Program",
"specialty": "Dermatology",
"location": "Los Angeles, CA 90095",
"latitude": 34.070264,
"longitude": -118.4440562,
"parent_id": 5
},